stop_id,stop_code,stop_name,stop_desc,stop_lat,stop_lon,zone_id,stop_url,location_type,parent_station,stop_timezone,wheelchair_boarding,platform_code
1001O00006C0,"","Avenida Barão de Tefé,  oposto ao 99","",-22.89731,-43.18737,"","",0,"","",,""
1002O00001C0,"","Rua Rivadávia Corrêa , 187","",-22.89797,-43.1954,"","",0,"","",,""
1002O00004C0,"",Rua Rivadávia Corrêa próximo ao 227-247,"",-22.89541,-43.1964,"","",0,"","",,""
1002O00007C0,"",Rua Camerino próximo ao 32,"",-22.8984,-43.18773,"","",0,"","",,""
1002O00008C0,"",Rua Bento Ribeiro próximo ao 104,"",-22.90064,-43.19296,"","",0,"","",,""
1002O00010C0,"",AquaRio,"",-22.89331,-43.1926,"","",0,"","",,""
1002O00012C2,"",Silvino Montenegro,"",-22.894498,-43.190443,"","",0,"","",,""
1002O00013C0,"",Hospital dos Servidores,"",-22.89538,-43.18789,"","",0,"","",,""
1003O00006C0,"",Avenida Professor Pereira Reis próximo ao 53-101,"",-22.897653,-43.202279,"","",0,"","",,""
1003O00012C0,"","Via Binário do Porto , oposto ao 310","",-22.897611,-43.20376,"","",0,"","",,""
1003O00015C0,"","Rua Equador, oposto ao 436","",-22.8976,-43.20581,"","",0,"","",,""
1003O00016C0,"",Via Binário do Porto próximo ao 742-778,"",-22.89699,-43.20429,"","",0,"","",,""
1003O00017C0,"",Via D1 próximo ao 101 - Santo Cristo,"",-22.901242,-43.206571,"","",0,"","",,""
1003O00018C0,"",Cordeiro da Graça,"",-22.89979,-43.20569,"","",0,"","",,""
1003O00020C0,"",Avenida Rodrigues Alves próximo ao 747,"",-22.89605,-43.20335,"","",0,"","",,""
1003O00023C0,"",VIA BINÁRIO DO PORTO,"",-22.8943,-43.19774,"","",0,"","",,""
1003O00027C0,"",Geógrafo Milton Santos,"",-22.90678,-43.20935,"","",0,"","",,""
1003O00031C0,"",Dinah de Queiroz,"",-22.906215,-43.20955,"","",0,"","",,""
1003O00035C0,"",Avenida Cidade de Lima - Santo Cristo,"",-22.898571,-43.202755,"","",0,"","",,""
1003O00042C0,"",R. da América,"",-22.900666,-43.200768,"","",0,"","",,""
1003O00064C2,"",Ponto Final: Rodoviária :: Linhas 112 e 133,"",-22.900548,-43.208675,"","",0,"","",,""
1003O00065C2,"",Ponto Final: Rodoviária :: Linha 104,"",-22.900214,-43.206754,"","",0,"","",,""
1003O00066C1,"",Ponto Final: Rodoviária :: Linhas 108 e 110,"",-22.900395,-43.207174,"","",0,"","",,""
1003O00067C2,"",Cidade do Samba,"",-22.894509,-43.197401,"","",0,"","",,""
1003VZ0052E9,"",Cordeiro da Graça,"",-22.897111,-43.204214,"","",1,"","",,""
1003VZ0060P1,"",Cordeiro da Graça,"",-22.897132,-43.204272,"","",0,1003VZ0052E9,"",,""
1004O00001C0,"",Carlos Seidl,"",-22.87773,-43.21602,"","",0,"","",,""
1004O00003C0,"",Monsenhor Manuel Gomes,"",-22.8886,-43.22001,"","",0,"","",,""
1004O00008C0,"",Rua Carlos Seidl,"",-22.88385,-43.22547,"","",0,"","",,""
1004O00009C9,"","Rua Carlos Seidl , 1333","",-22.879491,-43.224601,"","",0,"","",,""
1004O00010C0,"",INTO,"",-22.89425,-43.21386,"","",0,"","",,""
1004O00013C0,"","R. Carlos Seidl , oposto ao 321","",-22.876802,-43.218708,"","",0,"","",,""
1004O00014C0,"","Rua Peter Lund , 38","",-22.88343,-43.22595,"","",0,"","",,""
1004O00018C0,"",Ponto Final: Caju :: Linhas 209 e 906,"",-22.87797,-43.21592,"","",0,"","",,""
1004O00006C0,"",Parque Alegria,"",-22.88546,-43.22908,"","",0,"","",,""
1004O00005C0,"",Péter Lund,"",-22.88464,-43.2265,"","",0,"","",,""
1003O00029C0,"",Comandante Garcia Pires,"",-22.90082,-43.20973,"","",0,"","",,""
1003O00026C0,"",Pedro Alves,"",-22.90861,-43.20924,"","",0,"","",,""
1003O00032C1,"",Comandante Garcia Pires,"",-22.901663,-43.208455,"","",0,"","",,""
1003O00033C0,"",Praia Formosa,"",-22.90297,-43.208376,"","",0,"","",,""
1004O00019C9,"","Rua Carlos Seidl , oposto ao 1333","",-22.879428,-43.224736,"","",0,"","",,""
1004O00021C9,"","R. Carlos Seidl , 345","",-22.876667,-43.219271,"","",0,"","",,""
1004O00022C0,"","R. Carlos Seidl , 785","",-22.875813,-43.222653,"","",0,"","",,""
1004O00023C0,"","R. Carlos Seidl , oposto 785","",-22.875651,-43.222618,"","",0,"","",,""
1004O00024C0,"",General Gurjão,"",-22.8764,-43.21381,"","",0,"","",,""
1004O00026C0,"",Estaleiro Inhaúma,"",-22.874689,-43.210347,"","",0,"","",,""
1005L00022S0,"","BRS 1,2,3: Central","",-22.90591,-43.19395,"","",0,"","",,""
1005O00005P0,"",Terminal Procópio Ferreira :: Plat. Central,"",-22.904898,-43.192358,"","",0,1005O00377T9,"",,""
1005O00013S0,"","BRS 4,5: Rua de Santana","",-22.90677,-43.19493,"","",0,"","",,""
1005O00018S0,"","BRS 1,2,3: Santa Luzia","",-22.90853,-43.17225,"","",0,"","",,""
1005O00019S0,"","BRS 5,I: Central","",-22.90609,-43.19353,"","",0,"","",,""
1005O00025S0,"","BRS 3,4: Central","",-22.9059,-43.19296,"","",0,"","",,""
1005O00026S9,"","BRS 3,4: Passos","",-22.90344,-43.18532,"","",0,"","",,""
1005O00027S0,"",BRS 4: Central,"",-22.90562,-43.19151,"","",0,"","",,""
1005O00029S0,"","BRS 1,2,3: Beira Mar","",-22.91079,-43.1713,"","",0,"","",,""
1005O00033S0,"",BRS 4: Central,"",-22.90542,-43.1924,"","",0,"","",,""
1005O00034S9,"","BRS 1,2,4,5: Debret","",-22.90732,-43.17396,"","",0,"","",,""
1005O00040C0,"",São Crispim e São Crispiniano,"",-22.91343,-43.18832,"","",0,"","",,""
1005O00041C0,"",Rezende,"",-22.91448,-43.18843,"","",0,"","",,""
1005O00046C2,"",Ponto Final: Candelária :: Linhas 324 e 329,"",-22.90243,-43.181646,"","",0,"","",,""
1005O00052S0,"",BRS 5: Rio Branco,"",-22.90143,-43.18009,"","",0,"","",,""
1005O00053S0,"",BRS 5: Tomé de Sousa,"",-22.90384,-43.18753,"","",0,"","",,""
1005O00054S0,"",BRS 5: Central,"",-22.90573,-43.19337,"","",0,"","",,""
1005O00056S0,"","BRS 1,2: Central","",-22.90541,-43.19145,"","",0,"","",,""
1005O00057S0,"","BRS 1,2,5: Passos","",-22.90319,-43.18456,"","",0,"","",,""
1005O00059S0,"","BRS 1,3: Rua de Santana","",-22.90688,-43.19524,"","",0,"","",,""
1005O00060C0,"",General Caldwell,"",-22.90623,-43.193405,"","",0,"","",,""
1005O00061S0,"","BRS 1,2,3: Praça da República","",-22.90481,-43.189,"","",0,"","",,""
1005O00069S0,"",BRS 4: Tomé de Sousa,"",-22.90371,-43.18711,"","",0,"","",,""
1005O00071C0,"",Ponto Final: Bairro de Fátima,"",-22.91698,-43.18823,"","",0,"","",,""
1005O00090C0,"",Leandro Martins,"",-22.90162,-43.18528,"","",0,"","",,""
1005O00111C0,"",Ponto Regulador: Castelo :: Linha 014,"",-22.90888,-43.17491,"","",0,"","",,""
1005O00120C2,"",Ponto Final: Candelária :: Linhas 322 e 326,"",-22.902564,-43.182057,"","",0,"","",,""
1005O00124C0,"",Museu Nacional de Belas Artes,"",-22.90903,-43.17542,"","",0,"","",,""
1005O00125C0,"",Marrecas,"",-22.91183,-43.17866,"","",0,"","",,""
1005O00129P0,"",Terminal Procópio Ferreira :: Plat. Norte,"",-22.904565,-43.191892,"","",0,1005O00377T9,"",,""
1005O00135C0,"",Treze de Maio,"",-22.9099,-43.17701,"","",0,"","",,""
1005O00142C0,"",Ponto Final: Candelária :: Linha 343,"",-22.90232,-43.18185,"","",0,"","",,""
1005O00143C0,"",Ponto Regulador: Central do Brasil,"",-22.90307,-43.19083,"","",0,"","",,""
1005O00150S0,"","BRS 5,I: Praça da República","",-22.90454,-43.18876,"","",0,"","",,""
1005O00151S0,"","BRS 1,2,3,4: Franklin Roosevelt","",-22.910308,-43.171774,"","",0,"","",,""
1005O00152S0,"",BRS 4: Erasmo Braga,"",-22.90519,-43.17367,"","",0,"","",,""
1005O00155S0,"",BRS 4: Rio Branco,"",-22.90175,-43.18107,"","",0,"","",,""
1005O00055S0,"","BRS 1,3: Uruguaiana","",-22.902132,-43.182091,"","",0,"","",,""
1005O00154S0,"","BRS 2,4: Candelária","",-22.900689,-43.178257,"","",0,"","",,""
1005O00030S0,"","BRS 1,3: Candelária","",-22.900492,-43.177708,"","",0,"","",,""
1005O00031S0,"",BRS 2: Uruguaiana,"",-22.902469,-43.183149,"","",0,"","",,""
1005O00004S0,"","BRS 2,4: Central","",-22.905275,-43.192459,"","",0,"","",,""
1005O00068S0,"","BRS 1,3,4,5: Almirante Barroso","",-22.907518,-43.172851,"","",0,"","",,""
1005O00140C0,"",Estivadores,"",-22.899404,-43.187619,"","",0,"","",,""
1005O00064S0,"",BRS 2B: Praça da República,"",-22.904734,-43.189498,"","",0,"","",,""
1004O00020C9,"","Rua General Sampaio , oposto ao 74","",-22.878055,-43.215977,"","",0,"","",,""
1005O00063S0,R729,"BRS 1,2,4: General Caldwell","",-22.90978,-43.19101,"","",0,"","",,""
1005O00020S0,P7C9,"BRS 1,4: Praça Tiradentes","",-22.90723,-43.18272,"","",0,"","",,""
1005O00043S9,I7DC,"BRS 1,2,3,4,I: Senado","",-22.91118,-43.19203,"","",0,"","",,""
1005O00081S0,2BNZ,"BRS 5,I: Cruz Vermelha","",-22.91251,-43.18975,"","",0,"","",,""
1005O00146S0,2BTM,"BRS 1,2,3,4: Cruz Vermelha","",-22.9124,-43.18938,"","",0,"","",,""
1005O00016S9,2DDJ,"BRS 1,2: Treze de Maio","",-22.90836,-43.17734,"","",0,"","",,""
1005O00076P0,"",Terminal Rodoviário Menezes Cortes :: Plat. B,"",-22.905406,-43.174822,"","",0,1005O00266T0,"",,""
1005O00094C0,"",22 de Abril,"",-22.90988,-43.16846,"","",0,"","",,""
1004O00025C0,"",Brasil,"",-22.888207,-43.219215,"","",0,"","",,""
1005O00156S0,"",BRS 2: Passos,"",-22.90329,-43.18583,"","",0,"","",,""
1005O00157S0,"","BRS 2,3: Praça da República","",-22.90446,-43.18946,"","",0,"","",,""
1005O00158S0,"","BRS 4,5: Passos","",-22.90325,-43.18625,"","",0,"","",,""
1005O00159S0,"","BRS 1,2,3: Tomé de Sousa","",-22.90382,-43.18806,"","",0,"","",,""
1005O00162C0,"",Castelo :: Ônibus Executivos,"",-22.90631,-43.17414,"","",0,"","",,""
1005O00164C0,"",Ponto Regulador: Castelo :: Linha 006,"",-22.90883,-43.17477,"","",0,"","",,""
1005O00171C1,"",Ponto Final: Candelária :: Linha 393,"",-22.901639,-43.181276,"","",0,"","",,""
1005O00172C0,"",Ponto Regulador: Praça Tiradentes,"",-22.90731,-43.183,"","",0,"","",,""
1005O00184C0,"",Ponto Final: Ônibus Executivos :: Ilha do Governador,"",-22.90705,-43.17404,"","",0,"","",,""
1005O00189C0,"",Anfilófio de Carvalho,"",-22.90843,-43.17465,"","",0,"","",,""
1005O00190C0,"",Ancine,"",-22.909323,-43.174306,"","",0,"","",,""
1005O00193S9,"","BRS 1,2: Alfândega","",-22.90242,-43.17877,"","",0,"","",,""
1005O00194S9,"","BRS 1,2: Sete de Setembro","",-22.90467,-43.17793,"","",0,"","",,""
1005O00202C0,"",Ponto Final: Castelo :: Linha 2114,"",-22.90441,-43.17505,"","",0,"","",,""
1005O00211C0,"",Professor Clementino Fraga,"",-22.90859,-43.19501,"","",0,"","",,""
1005O00212C0,"",Frei Caneca,"",-22.9106,-43.19392,"","",0,"","",,""
1005O00214C0,"",Hospital Espanhol,"",-22.91362,-43.1907,"","",0,"","",,""
1005O00215C0,"",Costa Barros,"",-22.9148,-43.18904,"","",0,"","",,""
1005O00220C0,"",Ponto Final: Zona Oeste :: Campo Grande e Vila Kennedy,"",-22.90889,-43.1829,"","",0,"","",,""
1005O00221C0,"",Ponto Final: Zona Oeste :: Bangu,"",-22.90824,-43.18243,"","",0,"","",,""
1005O00222C0,"",Irineu Marinho,"",-22.90925,-43.1935,"","",0,"","",,""
1005O00223C0,"",Igreja de Sant'Ana,"",-22.90773,-43.19399,"","",0,"","",,""
1005O00224C0,"",Frederico Silva,"",-22.9078,-43.19226,"","",0,"","",,""
1005O00225C0,"",Moncorvo Filho,"",-22.90958,-43.19173,"","",0,"","",,""
1005O00226C0,"",Grande Templo Israelita,"",-22.91219,-43.19057,"","",0,"","",,""
1005O00227C0,"",Ponto Regulador: Carioca :: Linha 226,"",-22.90837,-43.17813,"","",0,"","",,""
1005O00228C0,"",Ponto Regulador: Carioca :: Linha 249,"",-22.90881,-43.17938,"","",0,"","",,""
1005O00233C0,"",Praça da República :: Zonas Norte e Oeste,"",-22.90874,-43.18894,"","",0,"","",,""
1005O00234C0,"",Ponto Final:  Praça da República :: 371 e 383,"",-22.908392,-43.189263,"","",0,"","",,""
1005O00235C0,"",Praça da República :: Central e Rodoviária,"",-22.907964,-43.189656,"","",0,"","",,""
1005O00236C0,"",Ponto Final: Terminal Jamil Amiden: Ônibus Executivos :: Zona Oeste,"",-22.90917,-43.18048,"","",0,"","",,""
1005O00239C0,"",Igreja de Santa Luzia,"",-22.9099,-43.17266,"","",0,"","",,""
1005O00240C0,"",Ponto Regulador: Linhas Zona Norte,"",-22.90878,-43.17147,"","",0,"","",,""
1005O00241C0,"",Calouste Gulbekian,"",-22.90795,-43.19572,"","",0,"","",,""
1005O00242P0,"",Terminal Churchill :: Plataforma Sul,"",-22.908986,-43.170703,"","",0,1005O00268T0,"",,""
1005O00243C0,"",Castelo :: Linha 2110,"",-22.90484,-43.17577,"","",0,"","",,""
1005O00246S0,"","BRS 1,2,3: Central","",-22.90585,-43.19226,"","",0,"","",,""
1005O00248C0,"",Carlos de Carvalho,"",-22.91066,-43.18825,"","",0,"","",,""
1005O00249S0,"","BRS 1,2,3: Ouvidor","",-22.90266,-43.17553,"","",0,"","",,""
1005O00250C0,"",Teófilo Otoni,"",-22.89948,-43.17708,"","",0,"","",,""
1005O00253C2,"",Ponto Final: Castelo :: Linha 2111,"",-22.90463,-43.17543,"","",0,"","",,""
1005O00254C0,"",Marrecas,"",-22.9132,-43.17733,"","",0,"","",,""
1005O00255C0,"",Ponto Regulador: Linha 247,"",-22.91239,-43.17652,"","",0,"","",,""
1005O00257C0,"",CAIXA Cultural - BNDES,"",-22.90873,-43.18033,"","",0,"","",,""
1005O00258C0,"",CAIXA Cultural - BNDES,"",-22.9088,-43.18051,"","",0,"","",,""
1005O00260C0,"",Franklin Roosevelt :: Pista Central,"",-22.90957,-43.17046,"","",0,"","",,""
1005O00262C0,"",Linhas Área Central,"",-22.90824,-43.17093,"","",0,"","",,""
1005O00263P0,"",Terminal Procópio Ferreira :: Plat. Sul,"",-22.904988,-43.192317,"","",0,1005O00377T9,"",,""
1005O00266T0,"",Terminal Rodoviário Menezes Cortes,"",-22.905313,-43.174898,"","",1,"","",,""
1005O00267P0,"",Terminal Churchill :: Plataforma Norte,"",-22.908874,-43.170562,"","",0,1005O00268T0,"",,""
1005O00268T0,"",Terminal Churchill,"",-22.908913,-43.170618,"","",1,"","",,""
1005O00270C0,"",Presidente Aguirre Cerda,"",-22.9179,-43.18823,"","",0,"","",,""
1005O00359S0,"","BRS 5,I: Praça da República","",-22.905052,-43.189782,"","",0,"","",,""
1005O00360C2,"",Ponto Final: Castelo :: Linha 306,"",-22.90507,-43.17617,"","",0,"","",,""
1005O00363C0,"",Aeroporto Santos Dumont,"",-22.912738,-43.167063,"","",0,"","",,""
1005O00364C0,"",Ponto Regulador:  Linha 265,"",-22.908037,-43.170773,"","",0,"","",,""
1005O00365C0,"",Uruguaiana,"",-22.902393,-43.182091,"","",0,"","",,""
1005O00367C2,"",Ponto Final: Candelária :: Linhas para Zona Norte,"",-22.90198,-43.18083,"","",0,"","",,""
1005O00218C0,"",Academia Brasileira de Letras,"",-22.910534,-43.172557,"","",0,"","",,""
1005O00198C0,7M9B,"BRS 1,4: Buenos Aires","",-22.9044,-43.18332,"","",0,"","",,""
1005O00197C0,7KKY,"BRS 2,3,5,I: Luis de Camões","",-22.905593,-43.182786,"","",0,"","",,""
1005O00231S0,QGWM,BRS 4: Praça da República,"",-22.90864,-43.18772,"","",0,"","",,""
1005O00180C0,JG2L,"BRS 1,2,3,4,5,I: Uruguaiana","",-22.90664,-43.18006,"","",0,"","",,""
1005O00181C0,JUCL,"BRS 1,2,3,4,5,I: Largo da Carioca","",-22.90649,-43.17764,"","",0,"","",,""
1005O00230S0,PEQT,"BRS 1,2: Praça da República","",-22.90843,-43.1869,"","",0,"","",,""
1005O00237S0,2CTP,BRS I: República do Paraguai,"",-22.90913,-43.17964,"","",0,"","",,""
1005O00238S0,2CZT,BRS 4: República do Paraguai,"",-22.909,-43.17926,"","",0,"","",,""
1005O00259C0,"",Catedral Metropolitana,"",-22.909372,-43.180251,"","",0,"","",,""
1005O00208C0,"",Franklin Roosevelt :: Pista Lateral,"",-22.90952,-43.17067,"","",0,"","",,""
1005O00369C2,"",Ponto Final: Candelária :: Linha 328,"",-22.902674,-43.18239,"","",0,"","",,""
1005O00370C1,"",Ponto Final: Candelária :: Linha 388,"",-22.901944,-43.182203,"","",0,"","",,""
1005O00372C1,"",Ponto Final: Candelária :: Linha 369,"",-22.901438,-43.18065,"","",0,"","",,""
1005O00373C1,"",Ponto Final: Candelária :: Linha 392,"",-22.901524,-43.180918,"","",0,"","",,""
1005O00374C2,"",DECEA,"",-22.908598,-43.168241,"","",0,"","",,""
1005O00375S2,"","BRS 2,3,5,I: Passos","",-22.903332,-43.184461,"","",0,"","",,""
1005O00376S2,"","BRS 1,4: Passos","",-22.903617,-43.185315,"","",0,"","",,""
1005O00377T9,"",Terminal Procópio Ferreira,"",-22.904806,-43.192141,"","",1,"","",,""
1005O00378C0,"",ALERJ,"",-22.906471,-43.17582,"","",0,"","",,""
1006O00004C0,"","Rua do Chichorro , 9","",-22.91707,-43.19543,"","",0,"","",,""
1006O00006C0,"","Rua Itapiru , oposto ao 155","",-22.91907,-43.19573,"","",0,"","",,""
1006O00007C0,"","Rua Itapiru , oposto ao 315","",-22.92023,-43.19661,"","",0,"","",,""
1006O00008C0,"","Rua Itapiru , 814","",-22.92414,-43.19849,"","",0,"","",,""
1006O00009C0,"","Rua Itapiru , 711","",-22.92357,-43.1979,"","",0,"","",,""
1006O00010C0,"","Rua Itapiru , oposto ao 564","",-22.92227,-43.19726,"","",0,"","",,""
1006O00011C0,"","Rua Doutor Agra , 115","",-22.9205,-43.19591,"","",0,"","",,""
1006O00015C0,"",Rua Dr Lagden ao lado 198,"",-22.91618,-43.19452,"","",0,"","",,""
1006O00017C0,"",Rua de Catumbi 93,"",-22.9166,-43.19521,"","",0,"","",,""
1006O00018C0,"","R. Itapiru , 592","",-22.922234,-43.197393,"","",0,"","",,""
1007O00009C0,"","Rua Barão de Itapagipe , 154","",-22.92059,-43.21275,"","",0,"","",,""
1007O00012C0,"",Rua Estrela próximo ao 78,"",-22.92494,-43.20832,"","",0,"","",,""
1007O00014C0,"","Rua Barão de Petrópolis , 44","",-22.92616,-43.2049,"","",0,"","",,""
1007O00015C0,"","Rua Barão de Petrópolis , 374","",-22.92831,-43.20358,"","",0,"","",,""
1007O00020C0,"","Rua Barão de Petrópolis , 11","",-22.92555,-43.20513,"","",0,"","",,""
1007O00022C0,"","Rua Campos da Paz , 63","",-22.92342,-43.20786,"","",0,"","",,""
1007O00023C0,"","Rua Aristídes Lôbo , 173","",-22.92177,-43.20882,"","",0,"","",,""
1007O00024C0,"","Rua Aristídes Lôbo , 109","",-22.91992,-43.20858,"","",0,"","",,""
1007O00025C0,"","Rua Aristídes Lôbo , 35","",-22.91786,-43.20922,"","",0,"","",,""
1007O00030C0,"","Rua Santa Alexandrina , oposto ao 1022","",-22.93359,-43.20924,"","",0,"","",,""
1007O00031C0,"","Rua Itapiru , 1344","",-22.92497,-43.20299,"","",0,"","",,""
1006O00016C0,"",Rua de Catumbi 15,"",-22.914984,-43.195936,"","",0,"","",,""
1007O00021C0,"","Rua Campos da Paz , 117","",-22.923657,-43.206368,"","",0,"","",,""
1007O00013C0,"",Ponto Final: Rio Comprido,"",-22.925297,-43.205808,"","",0,"","",,""
1006O00012C0,"",Rua Gilda de Abreu próximo ao 313-363,"",-22.91977,-43.194399,"","",0,"","",,""
1007O00019C0,"",Flor de Maio,"",-22.929983,-43.201903,"","",0,"","",,""
1007O00017S9,2A4K,"BRS 2,4,5: Barão de Ubá","",-22.91747,-43.21103,"","",0,"","",,""
1006O00013S9,2BF2,"BRS 1,2,3,4: Marquês de Sapucaí","",-22.91423,-43.19633,"","",0,"","",,""
1007O00032C0,"",Rua Campos da Paz próximo ao 209,"",-22.9239,-43.2045,"","",0,"","",,""
1007O00033C0,"","Rua Barão de Itapagipe , 66","",-22.91902,-43.21038,"","",0,"","",,""
1007O00038C0,"","Rua Itapiru , 1553","",-22.92501,-43.20483,"","",0,"","",,""
1007O00039C0,"","Rua Itapiru , 1163","",-22.92528,-43.20125,"","",0,"","",,""
1007O00040C0,"","Rua Itapiru , 985","",-22.92513,-43.19961,"","",0,"","",,""
1007O00042C0,"","Rua Santa Alexandrina , 111","",-22.926,-43.20846,"","",0,"","",,""
1007O00043C0,"","Rua Sampaio Viana , 185","",-22.92261,-43.21113,"","",0,"","",,""
1007O00044C0,"","Ponto Final:  Rua Sampaio Viana , 5","",-22.92371,-43.21231,"","",0,"","",,""
1007O00046C0,"",Ponto Final: Santa Alexandrina :: Linha 201,"",-22.93499,-43.20986,"","",0,"","",,""
1007O00049C0,"","Avenida Paulo de Frontin , 299","",-22.91943,-43.20979,"","",0,"","",,""
1007O00051C0,"","Avenida Paulo de Frontin , 257","",-22.91797,-43.20987,"","",0,"","",,""
1007O00052C0,"","Avenida Paulo de Frontin , 276","",-22.91777,-43.21018,"","",0,"","",,""
1007O00053C0,"","Avenida Paulo de Frontin , 500","",-22.92396,-43.20983,"","",0,"","",,""
1007O00054C0,"","Avenida Paulo de Frontin , 628","",-22.92744,-43.20962,"","",0,"","",,""
1007O00055C0,"","Avenida Paulo de Frontin , 730","",-22.92968,-43.20926,"","",0,"","",,""
1007O00056C0,"","Avenida Paulo de Frontin , 876","",-22.93156,-43.20922,"","",0,"","",,""
1007O00057C0,"",Santa Alexandrina,"",-22.93145,-43.20881,"","",0,"","",,""
1007O00058C0,"","Avenida Paulo de Frontin , 685","",-22.92961,-43.20896,"","",0,"","",,""
1007O00059C0,"","Avenida Paulo de Frontin , 631","",-22.92773,-43.2093,"","",0,"","",,""
1007O00060C0,"","Avenida Paulo de Frontin , 543","",-22.92582,-43.20942,"","",0,"","",,""
1007O00061C0,"","Avenida Paulo de Frontin , 481","",-22.924,-43.20952,"","",0,"","",,""
1007O00063C0,"","Rua do Bispo , lado oposto ao número 210","",-22.92268,-43.21401,"","",0,"","",,""
1007O00064C0,"","Rua do Bispo , 71","",-22.9248,-43.21172,"","",0,"","",,""
1007O00066C0,"","Av. Paulo de Frontin , 435","",-22.922492,-43.209598,"","",0,"","",,""
1007O00070C0,"","Avenida Paulo de Frontin ,568","",-22.92588,-43.20972,"","",0,"","",,""
1007O00071C0,"",Ponto Final: Rio Comprido :: Linha 711,"",-22.92438,-43.2088,"","",0,"","",,""
1007O00072C0,"",Ponto Final: Rio Comprido :: Linha 607,"",-22.92432,-43.20941,"","",0,"","",,""
1007O00074C0,"","R. Barão de Petrópolis , 415","",-22.928204,-43.203502,"","",0,"","",,""
1007O00075C0,"","Rua Santa Alexandrina , oposto ao 262","",-22.926991,-43.20824,"","",0,"","",,""
1007O00076C0,"","Rua Itapiru , 1150","",-22.925151,-43.201223,"","",0,"","",,""
1007O00077C0,"","R. Itapiru , 1351","",-22.925151,-43.203004,"","",0,"","",,""
1008O00001S0,"",BRS 4: Praça Onze,"",-22.90769,-43.20011,"","",0,"","",,""
1008O00002S0,"","BRS 2,4: Cidade Nova","",-22.90949,-43.20594,"","",0,"","",,""
1008O00003S2,"","BRS 1,3,5: Cidade Nova","",-22.910299,-43.205638,"","",0,"","",,""
1008O00004S0,"","BRS 4,5: Praça Onze","",-22.90786,-43.19828,"","",0,"","",,""
1008O00017C0,"",Pinto de Azevedo,"",-22.912297,-43.20442,"","",0,"","",,""
1008O00017S0,"","BRS 2,4: Cidade Nova","",-22.910148,-43.205172,"","",0,"","",,""
1008O00018S0,"","BRS 1,2,3: Praça Onze","",-22.90818,-43.19931,"","",0,"","",,""
1008O00026S0,"","BRS 3,5: Praça Onze","",-22.9075,-43.19952,"","",0,"","",,""
1008O00027S0,"","BRS 1,2,3: Praça Onze","",-22.90794,-43.20089,"","",0,"","",,""
1008O00030S0,"","BRS 1,3,5: Cidade Nova","",-22.90966,-43.20643,"","",0,"","",,""
1008O00033C0,"",Rua Carmo Neto s/n entre as ruas Benedito Hipólito  e Sta Maria,"",-22.90954,-43.20028,"","",0,"","",,""
1008O00034C0,"",Rua Carmo Neto 224,"",-22.91143,-43.19956,"","",0,"","",,""
1008O00035C0,"",Rua Heitor Carrilho 150,"",-22.91376,-43.19951,"","",0,"","",,""
1008O00036C0,"",Visconde de Duprat,"",-22.91031,-43.203643,"","",0,"","",,""
1008O00037C0,"",Laura de Araújo,"",-22.9096,-43.20122,"","",0,"","",,""
1008O00038C0,"",Marquês de Sapucaí,"",-22.90861,-43.19795,"","",0,"","",,""
1008O00041C0,"",Ponto Final:  Linhas Intermunicipais :: São Gonçalo,"",-22.913339,-43.208206,"","",0,"","",,""
1008O00042C0,"",Metrô Estácio :: Linha 133,"",-22.91267,-43.20611,"","",0,"","",,""
1009O00007C0,"",Emilia Guimarães,"",-22.91597,-43.19651,"","",0,"","",,""
1008O00005S0,"","BRS 4,5: Praça Onze","",-22.908606,-43.201059,"","",0,"","",,""
1007O00068C0,"","Av. Paulo de Frontin , 394","",-22.920919,-43.209982,"","",0,"","",,""
1008O00023S0,"","BRS 4,5: Praça Onze","",-22.907609,-43.199404,"","",0,"","",,""
1008O00007S0,"","BRS 1,2,3: Praça Onze","",-22.907833,-43.198783,"","",0,"","",,""
1007O00073C0,"","Rua Almirante Alexandrino , 4098","",-22.938418,-43.206965,"","",0,"","",,""
1008O00024S0,"","BRS 1,2,3: Praça Onze","",-22.908062,-43.200725,"","",0,"","",,""
1008O00006S0,"","BRS 1,2,3: Cidade Nova","",-22.909861,-43.206312,"","",0,"","",,""
1008O00025S0,"","BRS 4,5: Cidade Nova","",-22.90968,-43.205737,"","",0,"","",,""
1007O00037C0,"","Rua Santa Alexandrina  , 565","",-22.929656,-43.208505,"","",0,"","",,""
1009O00006S9,JVTF,BRS 2: Paulo de Frontin,"",-22.91547,-43.20947,"","",0,"","",,""
1009O00001S9,SPAF,"BRS 1,4: Largo do Estácio","",-22.91405,-43.20528,"","",0,"","",,""
1008O00021S9,SHJP,"BRS 1,4: Reverendo Álvaro Reis","",-22.91288,-43.20215,"","",0,"","",,""
1008O00016S9,S6LT,BRS 2: Correia Vasques,"",-22.91274,-43.20142,"","",0,"","",,""
1008O00011S9,RP59,"BRS 1,4,I: Aníbal Benévolo","",-22.91221,-43.19866,"","",0,"","",,""
1009O00002S9,2ADX,"BRS 1,2,4: Paulo de Frontin","",-22.91639,-43.2093,"","",0,"","",,""
1009O00004S9,2AH9,"BRS 1,2,4: Largo do Estácio","",-22.91439,-43.20535,"","",0,"","",,""
1009O00005S9,2B63,"BRS 1,2,4: Viscondessa de Piracinunga","",-22.91401,-43.20054,"","",0,"","",,""
1008O00020C0,"",Hélio Beltrão,"",-22.91259,-43.20581,"","",0,"","",,""
1009O00014C0,"","Av. Paulo de Frontin , 143","",-22.914564,-43.209973,"","",0,"","",,""
1009O00016C0,"","Av. Paulo de Frontin , 89","",-22.913358,-43.20975,"","",0,"","",,""
1010O00021C0,"",INTO :: Pista Lateral,"",-22.89479,-43.21542,"","",0,"","",,""
1010O00034C0,"",Ceará,"",-22.90757,-43.21843,"","",0,"","",,""
1010O00043C0,"",Vieira Bueno,"",-22.89402,-43.2287,"","",0,"","",,""
1010O00054C0,"",Esberard,"",-22.89716,-43.22196,"","",0,"","",,""
1010O00065C0,"",Eduardo Prado,"",-22.90694,-43.21579,"","",0,"","",,""
1010O00070C9,"",Largo da Cancela,"",-22.90052,-43.22503,"","",0,"","",,""
1010O00071C0,"",Rua Figueira de Melo 363,"",-22.90061,-43.21746,"","",0,"","",,""
1010O00075C0,"",Fonseca Teles,"",-22.9025,-43.21814,"","",0,"","",,""
1010O00078C0,"",Ponto Final: São Cristovão :: Copacabana (via Rebouças),"",-22.90914,-43.22234,"","",0,"","",,""
1010O00084C0,"","Rua Escobar , oposto ao 41","",-22.8993,-43.21664,"","",0,"","",,""
1010O00100C0,"",Praça Virgilio de Melo Franco,"",-22.904526,-43.219472,"","",0,"","",,""
1010O00110C0,"",Avenida do Exército :: Linhas sent. Zona Sul,"",-22.900934,-43.22387,"","",0,"","",,""
1010O00112C9,"",Avenida do Exército :: Linhas sent. Centro,"",-22.9003,-43.223247,"","",0,"","",,""
1010O00137C0,"",Avenida do Exército :: Linhas sent. Tijuca,"",-22.900754,-43.22366,"","",0,"","",,""
1010O00072C0,"",Pedro II,"",-22.904433,-43.214814,"","",0,"","",,""
1010O00073C0,"","Rua Figueira de Melo , 338","",-22.901897,-43.216521,"","",0,"","",,""
1010O00049C0,"",Benedito Otoni,"",-22.89692,-43.21672,"","",0,"","",,""
1009O00011S9,JUF2,"BRS 1,4,6: Joaquim Palhares","",-22.91531,-43.20902,"","",0,"","",,""
1009O00010S9,SYXG,BRS 2: Largo do Estácio,"",-22.91415,-43.20564,"","",0,"","",,""
1009O00009S9,2AEX,"BRS 5,6: Sampaio Ferraz","",-22.91564,-43.20808,"","",0,"","",,""
1009O00012S9,2ARH,"BRS 1,2,4: Reverendo Álvaro Reis","",-22.91331,-43.20284,"","",0,"","",,""
1010O00103C0,"",Estação São Cristóvão,"",-22.909238,-43.222916,"","",0,"","",,""
1010O00047C0,"",Monsenhor Manuel Gomes,"",-22.8904,-43.21891,"","",0,"","",,""
1010O00079C0,"",Figueira de Melo,"",-22.90411,-43.21611,"","",0,"","",,""
1010O00080C0,"",Gotemburgo,"",-22.90341,-43.21449,"","",0,"","",,""
1010O00081C0,"",Francisco Bicalho,"",-22.902025,-43.210979,"","",0,"","",,""
1010O00020C0,"",Francisco Eugênio,"",-22.90617,-43.21025,"","",0,"","",,""
1010O00038C0,"",Escola Técnica Estadual Adolpho Bloch,"",-22.90845,-43.23094,"","",0,"","",,""
1010O00077C0,"",Quinta da Boa Vista,"",-22.90931,-43.22631,"","",0,"","",,""
1010O00105C0,"",Quinta da Boa Vista,"",-22.90735,-43.221704,"","",0,"","",,""
1010O00040C0,"",Quinta da Boa Vista,"",-22.906357,-43.220639,"","",0,"","",,""
1010O00046C0,"",Parque,"",-22.90403,-43.22267,"","",0,"","",,""
1010O00092C0,"",Chantecler,"",-22.90001,-43.234537,"","",0,"","",,""
1010O00066C0,"",Desembargador Frederico Sussekind,"",-22.900648,-43.232294,"","",0,"","",,""
1010O00064C9,"",Desembargador Frederico Sussekind,"",-22.90045,-43.23258,"","",0,"","",,""
1010O00067C9,"",São Luiz Gonzaga,"",-22.90022,-43.23003,"","",0,"","",,""
1010O00062C9,"",São Luiz Gonzaga,"",-22.9,-43.22971,"","",0,"","",,""
1010O00068C9,"",Emancipação,"",-22.89977,-43.2284,"","",0,"","",,""
1010O00136C0,"",Liberdade,"",-22.898891,-43.227726,"","",0,"","",,""
1010O00135C0,"",Argentina,"",-22.897621,-43.227936,"","",0,"","",,""
1010O00061C0,"",Chaves Faria,"",-22.899862,-43.226297,"","",0,"","",,""
1010O00059C9,"",Pedro Lobianco,"",-22.90004,-43.22381,"","",0,"","",,""
1010O00055C0,"",Campo de São Cristóvão,"",-22.8993,-43.22303,"","",0,"","",,""
1010O00057C0,"",Centro de Tradições Nordestinas,"",-22.89848,-43.21927,"","",0,"","",,""
1010O00109C0,"",Santos Lima,"",-22.897982,-43.217549,"","",0,"","",,""
1010O00058C0,"",Escobar,"",-22.89796,-43.21823,"","",0,"","",,""
1010O00086C0,"",Vinte e Cinco de Março,"",-22.89585,-43.21893,"","",0,"","",,""
1010O00050C0,"",Igrejinha,"",-22.89578,-43.21521,"","",0,"","",,""
1010O00107C0,"",Praça Virgilio de Melo Franco,"",-22.904907,-43.218901,"","",0,"","",,""
1010O00083C0,"",Figueira de Melo,"",-22.90383,-43.21625,"","",0,"","",,""
1010O00096C0,"",Estádio Figueira de Melo,"",-22.90518,-43.214246,"","",0,"","",,""
1012O00024C0,"","Rua Prefeito Olímpio de Melo , 1255","",-22.89059,-43.23455,"","",0,"","",,""
1012O00027C0,"",Hospital Central do Exército,"",-22.89495,-43.24279,"","",0,"","",,""
1012O00028C0,"",Ponto Final: Triagem :: Linhas 471 e 472,"",-22.8959,-43.24367,"","",0,"","",,""
1012O00040C0,"","R. Leopoldo Bulhões , 178","",-22.88891,-43.244451,"","",0,"","",,""
1012O00046C0,"",Rua General Gustavo Cordeiro de Farias próximo ao 655,"",-22.89803,-43.23718,"","",0,"","",,""
1012O00047C0,"",Rua Couto de Magalhães próximo ao 363,"",-22.89102,-43.23681,"","",0,"","",,""
1012O00048C0,"",Rua Couto de Magalhães próximo ao 643-681,"",-22.8894,-43.23482,"","",0,"","",,""
1014O00001C0,"",Igreja Nossa Senhora das Neves,"",-22.9162,-43.19175,"","",0,"","",,""
1014O00002C0,"","Rua Progresso , 100","",-22.91698,-43.19062,"","",0,"","",,""
1014O00003C0,"","Rua do Oriente , 160","",-22.9186,-43.19062,"","",0,"","",,""
1014O00004C0,"","Rua do Oriente , 444","",-22.92057,-43.18968,"","",0,"","",,""
1014O00005C0,"","Rua Joaquim Murtinho , oposto ao 900","",-22.91804,-43.18387,"","",0,"","",,""
1014O00006C0,"","Rua Joaquim Murtinho , 769","",-22.91722,-43.18449,"","",0,"","",,""
1014O00007C0,"","Rua Joaquim Murtinho , 641","",-22.91611,-43.18416,"","",0,"","",,""
1014O00010C0,"",Rua Silvio Romero próximo ao 8,"",-22.91427,-43.18182,"","",0,"","",,""
1014O00015C0,"","Rua Joaquim Murtinho , oposto ao 383","",-22.91671,-43.18192,"","",0,"","",,""
1014O00016C0,"","R. Joaquim Murtinho , 514","",-22.916233,-43.182977,"","",0,"","",,""
1014O00017C0,"","Rua Joaquim Murtinho , 636","",-22.91604,-43.18427,"","",0,"","",,""
1014O00018C0,"","Rua Barão de Petrópolis , 737","",-22.93193,-43.201444,"","",0,"","",,""
1014O00019C0,"","Rua Almirante Alexandrino , 296","",-22.92077,-43.18486,"","",0,"","",,""
1014O00023C0,"","Rua Paschoal Carlos Magno , 99","",-22.92111,-43.18697,"","",0,"","",,""
1014O00024C0,"","Rua Paschoal Carlos Magno  , 5","",-22.91996,-43.18795,"","",0,"","",,""
1014O00025C0,"","Rua Monte Alegre , 342","",-22.92114,-43.18935,"","",0,"","",,""
1014O00026C0,"","R. do Oriente , 169","",-22.918939,-43.190601,"","",0,"","",,""
1014O00027C0,"","Rua do Oriente , 23","",-22.91753,-43.19013,"","",0,"","",,""
1014O00028C0,"","Rua Progresso , 67","",-22.91665,-43.19092,"","",0,"","",,""
1014O00029C0,"","Rua Eduardo Santos , 63","",-22.91528,-43.19087,"","",0,"","",,""
1014O00031C0,"","Rua Almirante Alexandrino , oposto ao 3596","",-22.93674,-43.20384,"","",0,"","",,""
1014O00032C0,"","Rua Almirante Alexandrino , oposto ao 3226","",-22.93519,-43.20109,"","",0,"","",,""
1014O00035C0,"",Largo do França,"",-22.92989,-43.19538,"","",0,"","",,""
1014O00036C0,"","Rua Almirante Alexandrino , oposto ao 1908","",-22.92753,-43.19334,"","",0,"","",,""
1014O00037C0,"","Rua Almirante Alexandrino , 1405","",-22.92497,-43.18976,"","",0,"","",,""
1014O00039C0,"","Rua Almirante Alexandrino , 1336","",-22.92474,-43.18942,"","",0,"","",,""
1014O00040C0,"","Rua Almirante Alexandrino , 1548","",-22.92552,-43.19051,"","",0,"","",,""
1014O00041C0,"","Rua Almirante Alexandrino , 1758","",-22.92704,-43.1923,"","",0,"","",,""
1014O00042C0,"","Rua Almirante Alexandrino , 1862","",-22.927299,-43.192879,"","",0,"","",,""
1014O00043C0,"","Rua Almirante Alexandrino , 2696","",-22.93213,-43.19737,"","",0,"","",,""
1012O00011C0,"",Leopoldo Bulhões,"",-22.889995,-43.244282,"","",0,"","",,""
1011O00013C0,"",Hospital Municipal Barata Ribeiro,"",-22.900272,-43.24078,"","",0,"","",,""
1012O00044C0,"",Aloysio Amancio,"",-22.89067,-43.24193,"","",0,"","",,""
1012O00042C0,"",Largo de Benfica,"",-22.89193,-43.23985,"","",0,"","",,""
1012O00009C1,"",Santo Antônio,"",-22.88533,-43.25221,"","",0,"","",,""
1012O00008C1,"",Viúva Cláudio,"",-22.88654,-43.25106,"","",0,"","",,""
1012O00041C0,"",Itamarandiba,"",-22.88918,-43.244619,"","",0,"","",,""
1012O00012C0,"",Aloysio Amancio,"",-22.890681,-43.242357,"","",0,"","",,""
1012O00013C0,"",Francisco Manuel,"",-22.891614,-43.240959,"","",0,"","",,""
1012O00043C0,"",Largo de Benfica,"",-22.891622,-43.240485,"","",0,"","",,""
1012O00037C0,"",São Luiz Gonzaga,"",-22.89406,-43.23986,"","",0,"","",,""
1012O00034C0,"",Pereira Lopes,"",-22.89443,-43.23866,"","",0,"","",,""
1012O00022C0,"",Lopes Trovão,"",-22.89277,-43.23723,"","",0,"","",,""
1012O00033C0,"",Marechal Aguiar,"",-22.89618,-43.23688,"","",0,"","",,""
1012O00038C0,"",Prefeito Olímpio de Melo,"",-22.89556,-43.24011,"","",0,"","",,""
1012O00025C0,"",Praça Natividade Saldanha,"",-22.89543,-43.24051,"","",0,"","",,""
1012O00045C0,"",Joana Alves,"",-22.89609,-43.2406,"","",0,"","",,""
1012O00030C0,"",Praça Natividade Saldanha,"",-22.89518,-43.24098,"","",0,"","",,""
1012O00039C0,"",Itapoã,"",-22.89788,-43.24049,"","",0,"","",,""
1012O00035C9,"",Abdon Milanez,"",-22.898993,-43.239452,"","",0,"","",,""
1011O00001C0,"",Hospital Municipal Barata Ribeiro,"",-22.90171,-43.24122,"","",0,"","",,""
1011O00008C0,"",Poteri,"",-22.905917,-43.239234,"","",0,"","",,""
1011O00009C0,"",GRES Estação Primeira de Mangueira,"",-22.904788,-43.240031,"","",0,"","",,""
1011O00004C0,"",GRES Estação Primeira de Mangueira,"",-22.90265,-43.24098,"","",0,"","",,""
1011O00007C0,"",Morro da Candelária,"",-22.907599,-43.237028,"","",0,"","",,""
1011O00002C0,"",Oito de Dezembro,"",-22.90793,-43.2369,"","",0,"","",,""
1011O00006C0,"",Estação Maracanã,"",-22.908587,-43.234681,"","",0,"","",,""
1011O00003C0,"",Estação Maracanã,"",-22.90883,-43.2332,"","",0,"","",,""
1012O00032C0,"",General Gustavo Cordeiro de Farias,"",-22.897413,-43.236747,"","",0,"","",,""
1012O00031C0,"",Largo do Pedregulho,"",-22.89888,-43.2359,"","",0,"","",,""
1011O00012C9,"",Chantecler,"",-22.900175,-43.234575,"","",0,"","",,""
1012O00036C9,"",Largo do Pedregulho,"",-22.89905,-43.23663,"","",0,"","",,""
1014O00044C0,"","Rua Almirante Alexandrino , 2946","",-22.9338,-43.19889,"","",0,"","",,""
1014O00052C0,"","Rua Almirante Alexandrino , Largo do Curvelo","",-22.91907,-43.18325,"","",0,"","",,""
1014O00054C0,"","Rua Almirante Alexandrino , oposto ao 4098","",-22.938539,-43.207118,"","",0,"","",,""
1014O00055C0,"","Rua Almirante Alexandrino , oposto ao 3790","",-22.937636,-43.20454,"","",0,"","",,""
1014O00058C0,"","R. Alm. Alexandrino , 3085","",-22.934843,-43.199794,"","",0,"","",,""
1014O00059C0,"","Rua Almirante Alexandrino , 1991","",-22.928069,-43.193748,"","",0,"","",,""
1014O00063C0,"","Rua Almirante Alexandrino , 501","",-22.921671,-43.186035,"","",0,"","",,""
1014O00066C0,"","R. Joaquim Murtinho , 335","",-22.916791,-43.181623,"","",0,"","",,""
1014O00069C0,"","R. Joaquim Murtinho , 240","",-22.915872,-43.181323,"","",0,"","",,""
1014O00072C0,"","R. Joaquim Murtinho , oposto ao 711","",-22.916656,-43.184602,"","",0,"","",,""
1014O00074C0,"","Rua Joaquim Murtinho , 900","",-22.918126,-43.183967,"","",0,"","",,""
1014O00080C0,"","R. Alm. Alexandrino , 2584","",-22.931587,-43.196424,"","",0,"","",,""
1014O00082C0,"","R. Alm. Alexandrino , 3080","",-22.934637,-43.199661,"","",0,"","",,""
1014O00083C0,"","Rua Almirante Alexandrino , oposto ao 3265","",-22.935146,-43.201332,"","",0,"","",,""
1014O00084C0,"","Rua Almirante Alexandrino , 3596","",-22.936801,-43.203953,"","",0,"","",,""
1014O00087C0,"","R. Alm. Alexandrino , próximo à rua Prof. Mauriti Santos","",-22.942497,-43.207699,"","",0,"","",,""
1014O00089C0,"",Ponto Final: Paula Matos :: Linha 014,"",-22.91287,-43.19322,"","",0,"","",,""
1014O00092C0,"","R. Augusto severo, s/n","",-22.918047,-43.177163,"","",0,"","",,""
1014O00094C0,"","Rua Joaquim Murtinho , 802","",-22.917256,-43.184634,"","",0,"","",,""
1014O00096C0,"","R. Joaquim Murtinho , 1024","",-22.918732,-43.183284,"","",0,"","",,""
1014O00100C0,"","R. Francisco Muratóri , 132 (ponto de parada de bonde)","",-22.916344,-43.181521,"","",0,"","",,""
1014O00106C0,"","R. Alm. Alexandrino , oposto ao 1991","",-22.928035,-43.193927,"","",0,"","",,""
1014O00110C0,"","R. Alm. Alexandrino , 2750","",-22.932541,-43.197711,"","",0,"","",,""
1014O00112C0,"","R. Alm. Alexandrino  , 3400","",-22.93548,-43.202942,"","",0,"","",,""
1014O00113C0,"","Rua Almirante Alexandrino, 5302","",-22.94411,-43.20799,"","",0,"","",,""
1014O00120C0,"","Rua Almirante Alexandrino , oposto ao 1772","",-22.927086,-43.192173,"","",0,"","",,""
1014O00126C0,"","Rua Alm. Alexandrino , oposto ao 286","",-22.920424,-43.184705,"","",0,"","",,""
1014O00128C0,"","R. Barão de Petrópolis , oposto ao 893","",-22.933712,-43.200521,"","",0,"","",,""
1014O00129C0,"","Rua Paschoal Carlos Magno , 92","",-22.921087,-43.187309,"","",0,"","",,""
1014O00130C0,"","Rua do Oriente , 375","",-22.920208,-43.189406,"","",0,"","",,""
1014O00131C0,"","R. do Oriente , 368","",-22.920023,-43.189631,"","",0,"","",,""
1014O00213C0,"",Senado,"",-22.91239,-43.19232,"","",0,"","",,""
1014O00214C0,"",R. Dr. Júlio Otoni,"",-22.936424,-43.196482,"","",0,"","",,""
1014O00215C0,"",R. Dr. Júlio Otoni,"",-22.934688,-43.195452,"","",0,"","",,""
1014O00216C0,"",R. Dr. Júlio Otoni,"",-22.934761,-43.197425,"","",0,"","",,""
1014O00217C0,"",R. Dr. Júlio Otoni,"",-22.934698,-43.197843,"","",0,"","",,""
1158O00002C0,"",Praça Carmela Dutra,"",-22.889811,-43.229453,"","",0,"","",,""
1158O00003C0,"","Rua Prefeito Olímpio de Melo , 825","",-22.88835,-43.23178,"","",0,"","",,""
1158O00004C0,"","Rua Ricardo Machado , 914","",-22.88923,-43.23187,"","",0,"","",,""
1158O00006C0,"","Rua São Januário , 990","",-22.89164,-43.22691,"","",0,"","",,""
1158O00007C0,"",Rua Francisco Palheta próximo ao 24-02,"",-22.88935,-43.22775,"","",0,"","",,""
1158O00008C0,"",Ponto Final: São Januário :: Linha 473,"",-22.89127,-43.22909,"","",0,"","",,""
1158O00010C0,"",Santo Antônio,"",-22.88639,-43.22657,"","",0,"","",,""
1158O00013C0,"","Rua São Januário, 350","",-22.897172,-43.226248,"","",0,"","",,""
1158O00014C0,"",General Argolo,"",-22.895604,-43.226822,"","",0,"","",,""
1158O00015C0,"","Rua São Januário, oposto ao 733","",-22.893868,-43.227453,"","",0,"","",,""
1161O00017C0,"","Av. Gomes Freire , 450","",-22.910798,-43.183919,"","",0,"","",,""
1161O00018C0,"","Av. Gomes Freire , 822","",-22.913926,-43.182645,"","",0,"","",,""
1161O00023C0,"",Rua Riachuelo 161,"",-22.91488,-43.18542,"","",0,"","",,""
1161O00024C0,"",Rua do Riachuelo 93,"",-22.91442,-43.18365,"","",0,"","",,""
1161O00025C0,"",Rua Riachuelo 21,"",-22.91374,-43.18104,"","",0,"","",,""
1161O00026C0,"",Rua Visconde de Maranguape 23,"",-22.91364,-43.17922,"","",0,"","",,""
1161O00027C0,"",Morais e Vale,"",-22.91429,-43.17745,"","",0,"","",,""
1161O00028C0,"",Rua Teixeira de Freitas oposto ao 111,"",-22.91401,-43.1771,"","",0,"","",,""
1161O00029C0,"",Rua do Lavradio oposto ao 130,"",-22.91138,-43.18243,"","",0,"","",,""
1161O00030C0,"","Av. Gomes Freire , 474","",-22.911037,-43.18382,"","",0,"","",,""
2015O00022C0,"","Praia do Flamengo,L/O 312","",-22.93549,-43.17401,"","",0,"","",,""
2015O00023C0,"","Praia do Flamengo , L/O 200","",-22.93267,-43.17431,"","",0,"","",,""
2015O00024C0,"","Praia do Flamengo, L/O 122","",-22.93028,-43.17406,"","",0,"","",,""
1014O00046C0,"","R. Alm. Alexandrino , 3790","",-22.937672,-43.2048,"","",0,"","",,""
1014O00093C0,"",Padre Miguelinho,"",-22.917409,-43.194107,"","",0,"","",,""
1014O00075C0,"",Largo do Guimarães,"",-22.921584,-43.186062,"","",0,"","",,""
1014O00079C0,"","R. Alm. Alexandrino , oposto ao 2305","",-22.929902,-43.195471,"","",0,"","",,""
1161O00007S0,GM1V,"BRS 2,4: Ubaldino do Amaral","",-22.91236,-43.18567,"","",0,"","",,""
1161O00021S0,GEU7,"BRS 1,3,I: Inválidos","",-22.91241,-43.18541,"","",0,"","",,""
1161O00020S0,CLN1,"BRS 2,4: Av. Mem de Sá","",-22.912949,-43.182542,"","",0,"","",,""
1161O00006S9,CB41,"BRS 1,3,I: Lavradio","",-22.91303,-43.18213,"","",0,"","",,""
1161O00019S0,2C4T,"BRS 5,I: Rua dos Inválidos","",-22.91129,-43.18621,"","",0,"","",,""
1161O00012S0,2CAW,"BRS 1,2,4: Rua dos Inválidos","",-22.91126,-43.18609,"","",0,"","",,""
1158O00001C0,"",Parque Alegria,"",-22.885926,-43.228785,"","",0,"","",,""
1158O00012C0,"",Ricardo Machado,"",-22.88901,-43.22447,"","",0,"","",,""
2015O00025C0,"","Praia do Flamengo, L/O 66","",-22.9269,-43.17318,"","",0,"","",,""
2015O00026C0,"","Praia do Flamengo, L/O 804","",-22.92495,-43.17257,"","",0,"","",,""
2015O00028C0,"","Praia do Flamengo,64","",-22.926818,-43.173413,"","",0,"","",,""
2015O00039C0,"","Avenida Oswaldo Cruz ,58","",-22.9396,-43.17493,"","",0,"","",,""
2015O00040C0,"",Sady de Gusmão,"",-22.94058,-43.17613,"","",0,"","",,""
2015O00052C0,"",Sady de Gusmão,"",-22.939766,-43.176849,"","",0,"","",,""
2015O00054C0,"","Rua Senador Vergueiro,45","",-22.934393,-43.175623,"","",0,"","",,""
2015O00055C0,"","Avenida Rui Barbosa, L/O 716","",-22.94243,-43.17398,"","",0,"","",,""
2015O00056C0,"","Avenida Rui Barbosa, L/O 460","",-22.94127,-43.17236,"","",0,"","",,""
2015O00057C0,"","Avenida Rui Barbosa, L/O 266","",-22.93961,-43.17102,"","",0,"","",,""
2015O00058C0,"","Rua Marquês de Abrantes,16","",-22.93386,-43.17738,"","",0,"","",,""
2015O00059C0,"","R. Marquês de Abrantes,82","",-22.936124,-43.177336,"","",0,"","",,""
2015O00060C0,"","Rua Marquês de Abrantes, 118","",-22.93693,-43.17755,"","",0,"","",,""
2015O00061C0,"","Rua Marquês de Abrantes,192","",-22.93979,-43.17841,"","",0,"","",,""
2015O00063C0,"","Rua Senador Vergueiro,137","",-22.936985,-43.17573,"","",0,"","",,""
2016O00010C0,"",Ponto Final: Passeio :: Linhas para Irajá,"",-22.914812,-43.176346,"","",0,"","",,""
2016O00015C0,"",Ponto Final: Passeio :: Linhas para Pavuna,"",-22.916058,-43.176554,"","",0,"","",,""
2016O00019C0,"",Praça Luiz de Camões,"",-22.92115,-43.1738,"","",0,"","",,""
2016O00020C0,"","Avenida Beira Mar ,L/O PRAÇA PARIS","",-22.91561,-43.17502,"","",0,"","",,""
2016O00021C0,"","Avenida Beira Mar, S/N","",-22.9195,-43.17475,"","",0,"","",,""
2016O00022C0,"",Praia do Flamengo L/O HOTEL GLORIA,"",-22.92272,-43.17225,"","",0,"","",,""
2016O00024C0,"","Praia do Flamengo , 804","",-22.924585,-43.172737,"","",0,"","",,""
2016O00030C0,"","Rua do Rússel,L/O ao lgo da gloria","",-22.92111,-43.17646,"","",0,"","",,""
2016O00032C0,"","Rua do catete, E/F ao palácio são Joaquim","",-22.92108,-43.17692,"","",0,"","",,""
2016O00039C0,"",Joaquim Silva,"",-22.916036,-43.176479,"","",0,"","",,""
2016O00040C0,"",Joaquim Silva,"",-22.916004,-43.176333,"","",0,"","",,""
2016O00051C9,"",Avenida Augusto Severo próximo ao 2516 - Glória,"",-22.918213,-43.176786,"","",0,"","",,""
2016O00052C9,"",Avenida Augusto Severo próximo ao 2516 - Glória,"",-22.918109,-43.176622,"","",0,"","",,""
2016O00054C0,"","Ponto Final:  Av. Augusto Severo , lado oposto da rua Conde de Lages ( ponto final )","",-22.917793,-43.17677,"","",0,"","",,""
2016O00055C0,"",Avenida Beira Mar próximo ao 2139-2241 - Glória,"",-22.912168,-43.172982,"","",0,"","",,""
2017O00003C0,"","Rua Alice , 1491","",-22.93668,-43.19572,"","",0,"","",,""
2017O00005C0,"","Rua Alice , oposto ao 1084","",-22.93465,-43.19211,"","",0,"","",,""
2017O00020C0,"","Rua Alice , 118","",-22.935795,-43.191116,"","",0,"","",,""
2017O00022C0,"","Rua Alice , 878","",-22.93484,-43.19182,"","",0,"","",,""
2017O00023C0,"","Rua Alice  , 1150","",-22.93444,-43.19241,"","",0,"","",,""
2017O00024C0,"","Rua Alice , 2146","",-22.93646,-43.19886,"","",0,"","",,""
2017O00025C0,"","Rua Ipiranga , 15","",-22.93314,-43.1833,"","",0,"","",,""
2017O00042C0,"","R. das Laranjeiras ,397","",-22.937676,-43.190334,"","",0,"","",,""
2017O00043C0,"","Rua das Laranjeiras,275","",-22.93475,-43.18782,"","",0,"","",,""
2017O00044C0,"","Rua das Laranjeiras,540","",-22.9386,-43.19426,"","",0,"","",,""
2017O00045C0,"","Rua das Laranjeiras ,486","",-22.93846,-43.19279,"","",0,"","",,""
2017O00046C0,"","Rua das Laranjeiras ,402","",-22.93776,-43.1905,"","",0,"","",,""
2017O00048C0,"","Rua Conde de Baependi ,65","",-22.93323,-43.18069,"","",0,"","",,""
2017O00051C0,"","Rua das Laranjeiras,42","",-22.93171,-43.18052,"","",0,"","",,""
2017O00052C0,"","Rua das Laranjeiras,130","",-22.93254,-43.18299,"","",0,"","",,""
2017O00053C0,"",Rua Pinheiro Machado E/F Fluminense,"",-22.9364,-43.18398,"","",0,"","",,""
2017O00056C0,"","Rua Pinheiro Machado,5","",-22.93343,-43.18448,"","",0,"","",,""
2017O00058C0,"",Rua Ministro Tavares de Lira próximo ao 72-108,"",-22.93188,-43.17925,"","",0,"","",,""
2017O00059C0,"","R. Alice , lado oposto ao 1503","",-22.936652,-43.196086,"","",0,"","",,""
2017O00060C0,"","R. Alice , 1344","",-22.935167,-43.194338,"","",0,"","",,""
2017O00062C0,"",Rua das Laranjeiras 343 - Laranjeiras,"",-22.935505,-43.189449,"","",0,"","",,""
2018O00010C0,"",Ponto Final: Largo do Machado,"",-22.930967,-43.17827,"","",0,"","",,""
2018O00011C0,"",Ponto Final: Largo do Machado :: Linha 497,"",-22.931537,-43.177512,"","",0,"","",,""
2018O00024C0,"",Largo do Machado,"",-22.930959,-43.17755,"","",0,"","",,""
2018O00025C0,"","R. do Catete,227","",-22.928074,-43.176898,"","",0,"","",,""
2018O00026C0,"","Rua do Catete,153","",-22.92665,-43.17654,"","",0,"","",,""
2018O00027C0,"","Rua Antônio Mendes Campos,L/O 56","",-22.92343,-43.17701,"","",0,"","",,""
2018O00028C0,"","Rua do Catete,40","",-22.92254,-43.17725,"","",0,"","",,""
2018O00029C0,"","Rua Pedro Américo,134","",-22.92455,-43.17912,"","",0,"","",,""
2018O00030C0,"","Rua Bento Lisboa,20","",-22.92582,-43.17945,"","",0,"","",,""
2015O00029C0,"","Praia do Flamengo ,136","",-22.929438,-43.174181,"","",0,"","",,""
2015O00030C0,"","Praia do Flamengo, 194","",-22.931775,-43.174441,"","",0,"","",,""
2015O00031C0,"","Praia do Flamengo ,262","",-22.933798,-43.174492,"","",0,"","",,""
2015O00034C0,"",Tucumã,"",-22.935307,-43.174247,"","",0,"","",,""
2015O00035C0,"","Praia do Flamengo, 344","",-22.936485,-43.174071,"","",0,"","",,""
2017O00041C0,"","Rua das Laranjeiras ,519","",-22.938529,-43.192462,"","",0,"","",,""
2016O00053C0,"",Cândido Mendes,"",-22.91913,-43.1768,"","",0,"","",,""
2018O00031C0,"","Rua Bento Lisboa,106","",-22.92749,-43.17941,"","",0,"","",,""
2018O00032C0,"","Rua Bento Lisboa,140","",-22.92908,-43.17944,"","",0,"","",,""
2018O00033C0,"","Rua Ministro Tavares de Lira,108","",-22.93112,-43.17945,"","",0,"","",,""
2019O00008C0,"",Ponto Final: Silvestre,"",-22.945657,-43.207678,"","",0,"","",,""
2019O00011P0,"",Ponto Final: Terminal do Cosme Velho :: Plat. A,"",-22.93981,-43.19976,"","",0,2019O00032T0,"",,""
2019O00014C0,"","Rua Almirante Alexandrino, oposto ao 5272","",-22.94396,-43.20822,"","",0,"","",,""
2019O00024C0,"",Trem do Corcovado,"",-22.94064,-43.19784,"","",0,"","",,""
2019O00025C0,"",Santuário São Judas Tadeu,"",-22.9404,-43.19802,"","",0,"","",,""
2019O00027C0,"",Marechal Pires Ferreira,"",-22.93908,-43.19616,"","",0,"","",,""
2019O00028C0,"",Marechal Pires Ferreira,"",-22.9392,-43.19604,"","",0,"","",,""
2019O00031P0,"",Terminal do Cosme Velho :: Plat. B,"",-22.94003,-43.19988,"","",0,2019O00032T0,"",,""
2019O00032T0,"",Terminal do Cosme Velho,"",-22.93984,-43.20008,"","",1,"","",,""
2020O00001S0,"",BRS 1: Marquês de Olinda,"",-22.945198,-43.182491,"","",0,"","",,""
2020O00002S0,"","BRS 1,2: Visconde de Ouro Preto","",-22.947373,-43.182628,"","",0,"","",,""
2020O00003S0,"","BRS 1,I: Muniz Barreto","",-22.949174,-43.183888,"","",0,"","",,""
2020O00005S0,"","BRS 1,2,3: Sorocaba","",-22.949856,-43.190623,"","",0,"","",,""
2020O00006S0,"","BRS 1,I: Real Grandeza","",-22.950603,-43.193199,"","",0,"","",,""
2020O00011S0,"","BRS 3,I: Lauro Sodré","",-22.956059,-43.177493,"","",0,"","",,""
2020O00012C0,"",UFRJ - Pinel,"",-22.95274,-43.17599,"","",0,"","",,""
2020O00016S0,"","BRS 2,3: Cobal","",-22.955667,-43.196167,"","",0,"","",,""
2020O00017S0,"","BRS 1,I: Real Grandeza","",-22.954194,-43.191986,"","",0,"","",,""
2020O00020S0,"","BRS 2,3: Paulino Fernandes","",-22.951935,-43.185606,"","",0,"","",,""
2020O00021S0,"","BRS 1,I: Nelson Mandela","",-22.951229,-43.183652,"","",0,"","",,""
2020O00035S0,"",BRS 2: Visconde de Ouro Preto,"",-22.94713,-43.18226,"","",0,"","",,""
2020O00040S0,"","BRS 2,3: Palácio da Cidade","",-22.951427,-43.194869,"","",0,"","",,""
2020O00043C0,"",Conde de Irajá,"",-22.957657,-43.194915,"","",0,"","",,""
2020O00050C0,"",Passagem,"",-22.95124,-43.18231,"","",0,"","",,""
2020O00057S0,"","BRS 1,I: Dezenove de Fevereiro","",-22.95233,-43.186717,"","",0,"","",,""
2020O00058S0,"","BRS 2,3: Conde de Irajá","",-22.955184,-43.19476,"","",0,"","",,""
2020O00059S0,"","BRS 2,3: Nelson Mandela","",-22.951101,-43.183259,"","",0,"","",,""
2020O00060S0,"","BRS 1,3: Visconde de Ouro Preto","",-22.94679,-43.18227,"","",0,"","",,""
2020O00064S0,"","BRS 2,3: Muniz Barreto","",-22.94919,-43.18406,"","",0,"","",,""
2020O00065C0,"","Ponto Final: Rio Sul :: Barra, Recreio e Vargem Grande","",-22.95468,-43.17864,"","",0,"","",,""
2020O00070C0,"",Marechal Ramon Castilla,"",-22.95576,-43.17563,"","",0,"","",,""
2020O00072S0,"","BRS 1,2,3,I: Visconde de Ouro Preto","",-22.946785,-43.182088,"","",0,"","",,""
2020O00073S0,"","BRS 1,2,3,I: Farani","",-22.943226,-43.180742,"","",0,"","",,""
2020O00074S0,"",BRS 1: Marquês de Abrantes,"",-22.941484,-43.179766,"","",0,"","",,""
2020O00075S0,"","BRS 2,3,I: Farani","",-22.942616,-43.181153,"","",0,"","",,""
2020O00076S0,"","BRS 3,I: Visconde de Ouro Preto","",-22.946632,-43.182667,"","",0,"","",,""
2020O00077S0,"","BRS 1,I: Conde de Irajá","",-22.955286,-43.195105,"","",0,"","",,""
2020O00078C0,"",Real Grandeza,"",-22.95827,-43.19289,"","",0,"","",,""
2020O00080C0,"",General Cornélio de Barros,"",-22.958809,-43.19595,"","",0,"","",,""
2020O00081C0,"",Pinheiro Guimarães,"",-22.95869,-43.19132,"","",0,"","",,""
2020O00082C0,"",Banana Podre,"",-22.94785,-43.18131,"","",0,"","",,""
2020O00083C0,"",San Tiago Dantas,"",-22.94386,-43.1807,"","",0,"","",,""
2020O00105C0,"",Miranda Valverde,"",-22.952839,-43.193624,"","",0,"","",,""
2020O00106C0,"",Visconde de Caravelas,"",-22.956183,-43.19224,"","",0,"","",,""
2020O00107C0,"",Visconde de Silva,"",-22.957146,-43.19183,"","",0,"","",,""
2020O00108C0,"",General Polidoro,"",-22.95701,-43.18934,"","",0,"","",,""
2020O00109C0,"",Voluntários da Pátria,"",-22.95417,-43.19064,"","",0,"","",,""
2020O00115C0,"",Universidade Santa Úrsula,"",-22.940198,-43.18297,"","",0,"","",,""
2020O00116C0,"",Marquês de Olinda,"",-22.94358,-43.18368,"","",0,"","",,""
2020O00117C0,"",Joia Valansi,"",-22.94534,-43.18414,"","",0,"","",,""
2020O00118C0,"",Professor Alfredo Gomes,"",-22.94749,-43.18428,"","",0,"","",,""
2020O00119C0,"",São Clemente,"",-22.948919,-43.184317,"","",0,"","",,""
2020O00130C0,"",Pepe,"",-22.95364,-43.18155,"","",0,"","",,""
2020O00131C0,"",Arnaldo Quintela,"",-22.9549,-43.18091,"","",0,"","",,""
2020O00132C0,"",Carlos Peixoto,"",-22.95572,-43.17848,"","",0,"","",,""
2020O00133C0,"",Praça Nicarágua,"",-22.942703,-43.176955,"","",0,"","",,""
2020O00134C0,"",San Tiago Dantas,"",-22.943212,-43.180541,"","",0,"","",,""
2020O00135C0,"",Visconde de Ouro Preto,"",-22.945414,-43.181781,"","",0,"","",,""
2020O00136C0,"",Mourisco,"",-22.94955,-43.18062,"","",0,"","",,""
2020O00137C0,"",Rio Sul,"",-22.95498,-43.17835,"","",0,"","",,""
2020O00140C0,"",Ponto Final: Metrô Botafogo :: Linha 548,"",-22.95079,-43.18423,"","",0,"","",,""
2020O00148C0,"",Praça Nicarágua,"",-22.942751,-43.176785,"","",0,"","",,""
2020O00149C0,"",General Polidoro,"",-22.958817,-43.191064,"","",0,"","",,""
2020O00027S0,"",BRS 1: Lauro Sodré,"",-22.956598,-43.177463,"","",0,"","",,""
2020O00004S0,"","BRS 1,2,3,I: Dezenove de Fevereiro","",-22.949493,-43.188036,"","",0,"","",,""
2019O00026C0,"",Rumania,"",-22.938375,-43.194599,"","",0,"","",,""
2020O00141C0,"",Ponto Final: Metrô Botafogo :: Linha SP 513,"",-22.95156,-43.184069,"","",0,"","",,""
2020O00099C0,"",Engenheiro Bernardo Saião,"",-22.954135,-43.180378,"","",0,"","",,""
2020O00150C0,"",Chaim Weizmann,"",-22.94116,-43.18195,"","",0,"","",,""
2020O00153S2,"","BRS 2,3: Sorocaba","",-22.953242,-43.189239,"","",0,"","",,""
2020O00155C0,"",Chaim Weizmann,"",-22.94129,-43.18231,"","",0,"","",,""
2020O00156C0,"",Farani,"",-22.942287,-43.180088,"","",0,"","",,""
2021O00003S0,"","BRS 1,I: Largo dos Leões","",-22.953009,-43.196703,"","",0,"","",,""
2021O00006S0,"","BRS 2,3: Largo dos Leões","",-22.95326,-43.19681,"","",0,"","",,""
2021O00008S0,"","BRS 2,3: Visconde de Silva","",-22.959026,-43.200876,"","",0,"","",,""
2021O00009S0,"","BRS 1,2,3,I: Macedo Sobrinho","",-22.957147,-43.198663,"","",0,"","",,""
2021O00010S0,"","BRS 1,2,3,I: Pedro II","",-22.955823,-43.198268,"","",0,"","",,""
2021O00011C0,"",General Dionísio,"",-22.958087,-43.196482,"","",0,"","",,""
2021O00012S0,"","BRS 1,I: Visconde de Silva","",-22.958842,-43.20044,"","",0,"","",,""
2022O00001C0,"",Instituto Benjamin Constant,"",-22.95299,-43.17244,"","",0,"","",,""
2022O00002C0,"",UNIRIO,"",-22.95422,-43.16858,"","",0,"","",,""
2022O00003C0,"",Odílio Bacelar,"",-22.95266,-43.16746,"","",0,"","",,""
2022O00005C0,"",Marechal Cantuária,"",-22.94927,-43.1662,"","",0,"","",,""
2022O00006C0,"",Praia da Urca,"",-22.94838,-43.16443,"","",0,"","",,""
2022O00007C0,"",Roquete Pinto,"",-22.94682,-43.16211,"","",0,"","",,""
2022O00008C0,"",Joaquim Caetano,"",-22.94513,-43.161,"","",0,"","",,""
2022O00010C0,"",Almirante Gomes Pereira,"",-22.94336,-43.16164,"","",0,"","",,""
2022O00011C0,"",Roquete Pinto,"",-22.94517,-43.16332,"","",0,"","",,""
2022O00013C0,"",Praia da Urca,"",-22.94802,-43.16418,"","",0,"","",,""
2022O00014C0,"",Mureta da Urca,"",-22.94847,-43.16593,"","",0,"","",,""
2022O00016C0,"",Urbano Santos,"",-22.95198,-43.16856,"","",0,"","",,""
2022O00018C0,"",Escola Municipal Minas Gerais,"",-22.95391,-43.16889,"","",0,"","",,""
2022O00019C0,"",Instituto Benjamin Constant,"",-22.95303,-43.1717,"","",0,"","",,""
2022O00020C0,"",Palácio Universitário,"",-22.95229,-43.17322,"","",0,"","",,""
2022O00021C0,"",Urca :: Linha 513,"",-22.94335,-43.16151,"","",0,"","",,""
2022O00023C0,"",Praça Felix Laranjeiras,"",-22.95325,-43.16811,"","",0,"","",,""
2022O00025C0,"",Mureta da Urca,"",-22.95068,-43.16777,"","",0,"","",,""
2022O00026C0,"",Urca :: Linha 107,"",-22.94334,-43.16081,"","",0,"","",,""
2022O00027C0,"",Urca :: Linhas LECD 54 (519) e LECD 55 (518),"",-22.94334,-43.16129,"","",0,"","",,""
2023O00008C0,"",Ponto Final: Leme :: Linha 472,"",-22.96169,-43.16611,"","",0,"","",,""
2023O00017C0,"",Martim Afonso,"",-22.96264,-43.16669,"","",0,"","",,""
2023O00020C0,"",Ponto Final: Leme :: Linhas 538 e 539,"",-22.96203,-43.16526,"","",0,"","",,""
2024O00001C0,"","Rua Tonelero , 380","",-22.96929,-43.18998,"","",0,"","",,""
2024O00002S0,"",BRS 2: Francisco Sá,"",-22.982959,-43.192112,"","",0,"","",,""
2024O00004S0,"",BRS 2: República do Peru,"",-22.96725,-43.18096,"","",0,"","",,""
2024O00006S0,"","BRS 1,3: Joaquim Nabuco","",-22.98607,-43.189898,"","",0,"","",,""
2024O00007S0,"","BRS 1,3: Sousa Lima","",-22.98239,-43.19094,"","",0,"","",,""
2024O00008S0,"","BRS 1,3: Bolívar","",-22.97653,-43.19017,"","",0,"","",,""
2024O00009S0,"",BRS 2: Raimundo Corrêa,"",-22.97303,-43.18818,"","",0,"","",,""
2024O00010S0,"","BRS 1,3: Siqueira Campos","",-22.96959,-43.18506,"","",0,"","",,""
2024O00011S0,"","BRS 1,3: Fernando Mendes","",-22.96685,-43.17974,"","",0,"","",,""
2024O00013S0,"",BRS 2: Raul Pompeia,"",-22.983389,-43.192411,"","",0,"","",,""
2024O00014S0,"","BRS 1,3: Djalma Ulrich","",-22.97936,-43.19089,"","",0,"","",,""
2024O00015S0,"","BRS 1,3: Santa Clara","",-22.97243,-43.18779,"","",0,"","",,""
2024O00016S0,"",BRS 2: Hilário de Gouveia,"",-22.9688,-43.18396,"","",0,"","",,""
2024O00017S0,"",BRS 2: Demétrio Ribeiro,"",-22.961987,-43.174865,"","",0,"","",,""
2024O00022C0,"","Rua Tonelero , 254","",-22.9676,-43.18724,"","",0,"","",,""
2024O00023C0,"","Rua Tonelero , 316","",-22.96828,-43.18842,"","",0,"","",,""
2024O00024C0,"","Rua Pompeu Loureiro , 36","",-22.9727,-43.19217,"","",0,"","",,""
2024O00025C0,"","Rua Pompeu Loureiro , 116","",-22.97528,-43.19346,"","",0,"","",,""
2024O00026S0,"","BRS 1,2,3: Duvivier","",-22.963709,-43.178321,"","",0,"","",,""
2024O00027S0,"",BRS 2: Cardeal Arcoverde,"",-22.96519,-43.18062,"","",0,"","",,""
2024O00028S0,"","BRS 1,3: Hilário de Gouveia","",-22.96748,-43.18412,"","",0,"","",,""
2024O00029S0,"",BRS 2: Santa Clara,"",-22.96988,-43.18782,"","",0,"","",,""
2024O00030S0,"","BRS 1,3: Barão de Ipanema","",-22.97362,-43.1913,"","",0,"","",,""
2024O00031S0,"",BRS 2: Miguel Lemos,"",-22.97702,-43.19276,"","",0,"","",,""
2024O00032S0,"","BRS 1,3: Júlio de Castilhos","",-22.9839,-43.1918,"","",0,"","",,""
2024O00033C0,"",Ponto Final: Copacabana :: Linha 455,"",-22.986714,-43.190978,"","",0,"","",,""
2024O00034S0,"","BRS 1,3: Conselheiro Lafaiete","",-22.983611,-43.193179,"","",0,"","",,""
2024O00035C2,"",Sá Ferreira,"",-22.98044,-43.191017,"","",0,"","",,""
2024O00036S0,"","BRS 1,3: Constante Ramos","",-22.97361,-43.18856,"","",0,"","",,""
2024O00037S0,"",BRS 2: Figueiredo Magalhães,"",-22.97113,-43.18675,"","",0,"","",,""
2023O00018C0,"",Aurelino Leal,"",-22.96263,-43.1679,"","",0,"","",,""
2023O00019C0,"",Anchieta,"",-22.96327,-43.16953,"","",0,"","",,""
2023O00015C0,"",Anchieta,"",-22.96381,-43.16995,"","",0,"","",,""
2024O00038S0,"","BRS 1,3: Paula Freitas","",-22.96827,-43.18313,"","",0,"","",,""
2024O00039S0,"",BRS 2: Rodolfo Dantas,"",-22.96599,-43.17815,"","",0,"","",,""
2024O00040S0,"",BRS 1: Ministro Viveiros de Castro,"",-22.962401,-43.174617,"","",0,"","",,""
2024O00041S0,"","BRS 1,3: República do Peru","",-22.96616,-43.1821,"","",0,"","",,""
2024O00042S0,"",BRS 2: Figueiredo Magalhães,"",-22.96875,-43.18608,"","",0,"","",,""
2024O00043S0,"","BRS 1,3: Raimundo Corrêa","",-22.9716,-43.18967,"","",0,"","",,""
2024O00044S0,"",BRS 2: Bolívar,"",-22.9753,-43.1922,"","",0,"","",,""
2024O00045S0,"","BRS 1,3: Sousa Lima","",-22.9818,-43.19247,"","",0,"","",,""
2024O00047S0,"",BRS 2: Paula Freitas,"",-22.96688,-43.18321,"","",0,"","",,""
2024O00048S0,"","BRS 1,3: Anita Garibaldi","",-22.96953,-43.18727,"","",0,"","",,""
2024O00049S0,"",BRS 2: Constante Ramos,"",-22.97249,-43.19054,"","",0,"","",,""
2024O00050C0,"","Avenida Princesa Isabel , 183","",-22.963549,-43.17452,"","",0,"","",,""
2024O00065S0,"",BRS 2: Raul Pompeia,"",-22.985165,-43.191863,"","",0,"","",,""
2024O00082C0,"","Rua Miguel Lemos,  53","",-22.97773,-43.19181,"","",0,"","",,""
2024O00083S0,"",BRS 2: Rainha Elizabeth,"",-22.985066,-43.19019,"","",0,"","",,""
2024O00091S0,"",BRS 1: Ronald de Carvalho,"",-22.9629,-43.177096,"","",0,"","",,""
2024O00092S0,"",BRS 1: Rodolfo Dantas,"",-22.96443,-43.17945,"","",0,"","",,""
2024O00093S0,"","BRS 1,3: Xavier da Silveira","",-22.97608,-43.19251,"","",0,"","",,""
2024O00096S0,"",BRS 2: Miguel Lemos,"",-22.9783,-43.19061,"","",0,"","",,""
2024O00097S0,"",BRS 2: Barão de Ipanema,"",-22.97536,-43.18965,"","",0,"","",,""
2024O00098S0,"","BRS 1,3: Belfort Roxo","",-22.965,-43.17623,"","",0,"","",,""
2024O00102C0,"",Belfort Roxo,"",-22.963688,-43.17606,"","",0,"","",,""
2024O00103C0,"","Rua Figueiredo de Magalhães,108","",-22.970764,-43.185404,"","",0,"","",,""
2024O00104C0,"","Rua Figueiredo de Magalhães ,394","",-22.96883,-43.1871,"","",0,"","",,""
2024O00105C0,"","Rua Figueiredo de Magalhães ,726","",-22.96731,-43.18838,"","",0,"","",,""
2024O00106C0,"","Rua Figueiredo de Magalhães ,870","",-22.96583,-43.18964,"","",0,"","",,""
2024O00107C0,"","Rua Siqueira Campos ,257","",-22.964774,-43.189964,"","",0,"","",,""
2024O00119C0,"",Atlântica,"",-22.964835,-43.174598,"","",0,"","",,""
2024O00120S0,"","BRS 3,I: Nossa Senhora de Copacabana","",-22.96307,-43.17426,"","",0,"","",,""
2024O00122C0,"","Rua Tonelero ,146","",-22.96603,-43.18415,"","",0,"","",,""
2024O00123C0,"","Rua Tonelero ,68","",-22.96493,-43.18197,"","",0,"","",,""
2024O00163C0,"","Ponto Final:  Av. Prado Júnior , Oposto ao 16","",-22.965057,-43.174476,"","",0,"","",,""
2025O00001S0,"",BRS 1: Canning,"",-22.985642,-43.193549,"","",0,"","",,""
2025O00002S0,"","BRS 1,3: Teixeira de Melo","",-22.985532,-43.19969,"","",0,"","",,""
2025O00003S0,"","BRS 1,3: Anibal de Mendonça","",-22.984955,-43.210774,"","",0,"","",,""
2025O00006S0,"",BRS 2: Garcia d'Ávila,"",-22.984015,-43.210389,"","",0,"","",,""
2025O00007S0,"",BRS 2: Farme de Amoedo,"",-22.984586,-43.199731,"","",0,"","",,""
2025O00008S0,"",BRS 2: Bulhões de Carvalho,"",-22.984079,-43.194256,"","",0,"","",,""
2025O00009S0,"","BRS 1,3: Aníbal de Mendonça","",-22.983912,-43.21211,"","",0,"","",,""
2025O00010S0,"","BRS 1,3: Vinícius de Moraes","",-22.984495,-43.201281,"","",0,"","",,""
2025O00011S0,"","BRS 1,3,I: Jangadeiros","",-22.984783,-43.195964,"","",0,"","",,""
2025O00012S0,"",BRS 3: Apollo Onze,"",-22.98612,-43.19546,"","",0,"","",,""
2025O00018C0,"",Henrique Dumont,"",-22.985892,-43.213265,"","",0,"","",,""
2025O00020S0,"",BRS 2: General Osório,"",-22.985632,-43.198255,"","",0,"","",,""
2025O00021S0,"",BRS 2: Garcia d'Ávila,"",-22.985067,-43.208653,"","",0,"","",,""
2025O00022S0,"",BRS 2: Henrique Dumont,"",-22.984835,-43.212524,"","",0,"","",,""
2025O00031C0,"",Ponto Final: General Osório :: Rua Visconde de Pirajá,"",-22.984719,-43.197788,"","",0,"","",,""
2024O00072C0,"",Rodolfo Dantas,"",-22.9676,-43.17816,"","",0,"","",,""
2024O00109C0,"",Princesa Isabel,"",-22.965055,-43.172955,"","",0,"","",,""
2024O00073C0,"",Prado Júnior,"",-22.96565,-43.17427,"","",0,"","",,""
2024O00128C0,"",Belfort Roxo,"",-22.96563,-43.17505,"","",0,"","",,""
2024O00129C0,"",Duvivier,"",-22.966715,-43.177092,"","",0,"","",,""
2024O00131C0,"",República do Peru,"",-22.96882,-43.1809,"","",0,"","",,""
2024O00071C0,"",República do Peru,"",-22.96894,-43.18042,"","",0,"","",,""
2024O00133C0,"",Siqueira Campos,"",-22.97035,-43.18313,"","",0,"","",,""
2024O00070C0,"",Siqueira Campos,"",-22.971253,-43.183586,"","",0,"","",,""
2024O00134C0,"",Santa Clara,"",-22.97277,-43.18573,"","",0,"","",,""
2024O00140C0,"",Santa Clara,"",-22.973773,-43.186021,"","",0,"","",,""
2024O00069C0,"",Bolívar,"",-22.97589,-43.18755,"","",0,"","",,""
2024O00135C0,"",Bolívar,"",-22.97629,-43.1882,"","",0,"","",,""
2024O00136C0,"",Miguel Lemos,"",-22.97779,-43.18889,"","",0,"","",,""
2024O00068C0,"",Miguel Lemos,"",-22.97858,-43.1888,"","",0,"","",,""
2024O00137C0,"",Djalma Ulrich,"",-22.9795,-43.1895,"","",0,"","",,""
2024O00138C0,"",Sousa Lima,"",-22.98206,-43.18997,"","",0,"","",,""
2024O00139C0,"",Júlio de Castilhos,"",-22.98351,-43.189451,"","",0,"","",,""
2024O00126C0,"",Júlio de Castilhos,"",-22.98388,-43.18976,"","",0,"","",,""
2024O00125C0,"",Joaquim Nabuco,"",-22.98536,-43.18891,"","",0,"","",,""
2025O00030C0,"",Parque Garota de Ipanema,"",-22.98735,-43.19214,"","",0,"","",,""
2025O00016C0,"",Maria Quitéria,"",-22.986211,-43.207558,"","",0,"","",,""
2025O00029C0,"",Maria Quitéria,"",-22.98649,-43.20754,"","",0,"","",,""
2025O00004C0,"",Posto 10,"",-22.98626,-43.2118,"","",0,"","",,""
2025O00033S0,"",BRS 2: Farme de Amoedo,"",-22.98545,-43.201607,"","",0,"","",,""
2025O00034S0,"","BRS 1,3: Vinícius de Moraes","",-22.985264,-43.204524,"","",0,"","",,""
2025O00035S0,"","BRS 1,3: Maria Quitéria","",-22.984145,-43.207924,"","",0,"","",,""
2025O00036S0,"",BRS 2: Joana Angélica,"",-22.984346,-43.20405,"","",0,"","",,""
2025O00038C0,"",Ponto Final: General Osório :: Rua Teixeira de Melo,"",-22.984883,-43.198536,"","",0,"","",,""
2025O00039C0,"",Ponto Final: Jardim de Alah :: Linha 108,"",-22.981547,-43.213422,"","",0,"","",,""
2025O00050C0,"","Av. Epitácio Pessoa,318","",-22.983096,-43.214189,"","",0,"","",,""
2025O00058C0,"",Praça Paul Claudel,"",-22.981294,-43.213477,"","",0,"","",,""
2025O00061C0,"",Farme de Amoedo,"",-22.98694,-43.201179,"","",0,"","",,""
2026O00001C0,"",General Artigas,"",-22.98757,-43.22467,"","",0,"","",,""
2026O00006S0,"",BRS 2: General Artigas,"",-22.98528,-43.22603,"","",0,"","",,""
2026O00007S0,"",BRS 2: Cupertino Durão,"",-22.98409,-43.221,"","",0,"","",,""
2026O00008S0,"",BRS 2: Jardim de Alah,"",-22.98376,-43.21612,"","",0,"","",,""
2026O00010S0,"","BRS 1,3: Rita Ludolf","",-22.98614,-43.22824,"","",0,"","",,""
2026O00011S0,"","BRS 1,3: Afrânio de Melo Franco","",-22.98382,-43.21824,"","",0,"","",,""
2026O00013C0,"",Clube Monte Líbano,"",-22.98015,-43.21594,"","",0,"","",,""
2026O00016C0,"",Afrânio de Melo Franco,"",-22.98629,-43.21709,"","",0,"","",,""
2026O00020S0,"",BRS 2: Carlos Góis,"",-22.98481,-43.21911,"","",0,"","",,""
2026O00026C0,"",Hospital Municipal Miguel Couto,"",-22.97791,-43.22278,"","",0,"","",,""
2026O00035S0,"",BRS 2: Rainha Guilhermina,"",-22.9862,-43.2258,"","",0,"","",,""
2026O00036S0,"","BRS 1,3: Afrânio de Melo Franco","",-22.98471,-43.21716,"","",0,"","",,""
2026O00037S0,"","BRS 1,2,3: João Lira","",-22.98514,-43.2216,"","",0,"","",,""
2026O00038C0,"",Clube de Regatas do Flamengo,"",-22.97811,-43.21849,"","",0,"","",,""
2026O00051C0,"",Nossa Senhora Auxiliadora,"",-22.97915,-43.22292,"","",0,"","",,""
2026O00052S0,"","BRS 1,3: Antero de Quental","",-22.98456,-43.22356,"","",0,"","",,""
2026O00053C0,"",Ponto Final: CIEP Nação Rubro Negra,"",-22.97901,-43.22225,"","",0,"","",,""
2026O00057C0,"",Ponto Final: Afrânio de Melo Franco II,"",-22.9796,-43.21824,"","",0,"","",,""
2026O00069C0,"",Capitão César de Andrade,"",-22.98025,-43.22637,"","",0,"","",,""
2026O00070C0,"",Baden Powell,"",-22.98236,-43.22692,"","",0,"","",,""
2026O00071C0,"",Rodolfo Albino,"",-22.98453,-43.2289,"","",0,"","",,""
2026O00073C0,"",Metrô na Superfície :: Alto Leblon,"",-22.98411,-43.22901,"","",0,"","",,""
2026O00075C0,"",Professor Azevedo Marques,"",-22.98512,-43.22961,"","",0,"","",,""
2026O00076C0,"",Antero de Quental,"",-22.98471,-43.22297,"","",0,"","",,""
2026O00088C0,"",Juquiá,"",-22.98097,-43.22375,"","",0,"","",,""
2026O00090C0,"",Humberto de Campos,"",-22.98146,-43.21504,"","",0,"","",,""
2026O00091C0,"",Ataulfo de Paiva,"",-22.98319,-43.2156,"","",0,"","",,""
2026O00092C0,"",Leôncio Corrêa,"",-22.9827,-43.22772,"","",0,"","",,""
2026O00093C0,"",Professor Azevedo Marques,"",-22.98574,-43.22936,"","",0,"","",,""
2026O00095C0,"",Ponto Final: Antero de Quental,"",-22.98549,-43.2235,"","",0,"","",,""
2026O00098C0,"",Bartolomeu Mitre,"",-22.98693,-43.22221,"","",0,"","",,""
2026O00100C0,"",Humberto de Campos,"",-22.98115,-43.21822,"","",0,"","",,""
2026O00112C9,"",Cupertino Durão,"",-22.986893,-43.220334,"","",0,"","",,""
2027O00020C0,"",Ilha Piraquê,"",-22.96903,-43.21732,"","",0,"","",,""
2027O00025C0,"",Praça General Alcio Souto,"",-22.96155,-43.20316,"","",0,"","",,""
2027O00026C0,"","R. Fonte da Saudade , 126","",-22.962923,-43.203039,"","",0,"","",,""
2027O00040C0,"","Avenida Henrique Dodsworth , 83","",-22.97694,-43.19634,"","",0,"","",,""
2026O00058C0,"",Ponto Final: Afrânio de Melo Franco I,"",-22.980706,-43.218123,"","",0,"","",,""
2025O00060C0,"",Teixeira de Melo,"",-22.986671,-43.199305,"","",0,"","",,""
2025O00032C0,"",Posto 8,"",-22.9874,-43.1966,"","",0,"","",,""
2027O00042C0,"",Almirante Custódio de Melo,"",-22.964044,-43.214469,"","",0,"","",,""
2026O00078C0,"",Professor Artur Ramos [sent. Barra],"",-22.98346,-43.22329,"","",0,"","",,""
2027O00022C0,"",Carlos Esmeraldino,"",-22.96295,-43.21152,"","",0,"","",,""
2027O00041C0,"",Maria Angélica,"",-22.96287,-43.2083,"","",0,"","",,""
2027O00023C0,"",Maria Angélica,"",-22.96302,-43.20747,"","",0,"","",,""
2027O00024C0,"",Marcos Tamoyo,"",-22.9628,-43.20559,"","",0,"","",,""
2027O00013C0,"",Henrique Dodsworth,"",-22.97573,-43.19847,"","",0,"","",,""
2025O00057C0,"",Vinícius de Moraes,"",-22.97928,-43.201283,"","",0,"","",,""
2025O00055C0,"",Joana Angélica,"",-22.98005,-43.203808,"","",0,"","",,""
2025O00054C0,"",Maria Quitéria,"",-22.98059,-43.20599,"","",0,"","",,""
2025O00053C0,"",Garcia d'Ávila,"",-22.980868,-43.208672,"","",0,"","",,""
2025O00052C0,"",Aníbal de Mendonça,"",-22.98064,-43.211852,"","",0,"","",,""
2026O00087C0,"",Conde de Bernadote [sent. Barra],"",-22.98217,-43.22361,"","",0,"","",,""
2026O00086C0,"",João de Barros [sent. Miguel Couto],"",-22.98294,-43.22342,"","",0,"","",,""
2027O00044C0,"","R. Fonte da Saudade , 215","",-22.965081,-43.202547,"","",0,"","",,""
2027O00045C0,"","R. Fonte da Saudade , 115","",-22.962666,-43.202859,"","",0,"","",,""
2027O00046C0,"","Rua Fonte da Saudade , 283","",-22.96652,-43.20263,"","",0,"","",,""
2027O00057C0,"","Rua Jardim Botânico ,67","",-22.960469,-43.204758,"","",0,"","",,""
2027O00059C0,"",Eurico Cruz,"",-22.960683,-43.206938,"","",0,"","",,""
2027O00097C0,"",General Garzon,"",-22.967135,-43.21983,"","",0,"","",,""
2027O00100C0,"","Avenida Henrique Dodsworth , oposto ao 65","",-22.976836,-43.196288,"","",0,"","",,""
2027O00101C0,"","R. Fonte da Saudade , 204","",-22.964472,-43.202862,"","",0,"","",,""
2027O00102C0,"",Carlos Esmeraldino,"",-22.962566,-43.211116,"","",0,"","",,""
2028O00001C0,"",Ponto Final: Horto,"",-22.966669,-43.235767,"","",0,"","",,""
2028O00002C0,"","Rua Pacheco Leão , 1215","",-22.966848,-43.230597,"","",0,"","",,""
2028O00003C0,"","Rua Pacheco Leão , oposto ao 650","",-22.96568,-43.22487,"","",0,"","",,""
2028O00004C0,"","Rua Pacheco Leão , oposto ao 320","",-22.96547,-43.22271,"","",0,"","",,""
2028O00005C0,"","Rua Pacheco Leão , oposto ao 162","",-22.96591,-43.22102,"","",0,"","",,""
2028O00013C0,"","Rua Lopes Quintas , 120","",-22.9648,-43.21971,"","",0,"","",,""
2028O00014C0,"","Rua Lopes Quintas , 302","",-22.9642,-43.22139,"","",0,"","",,""
2028O00018C0,"","Rua Pacheco Leão ,  750","",-22.96541,-43.22621,"","",0,"","",,""
2028O00019C0,"","Rua Pacheco Leão, 984","",-22.96562,-43.2287,"","",0,"","",,""
2028O00020C0,"","Rua Pacheco Leão , 1124","",-22.96618,-43.22975,"","",0,"","",,""
2028O00021C0,"","Rua Pacheco Leão , 1314","",-22.96671,-43.23134,"","",0,"","",,""
2028O00025C0,"",Eurico Cruz,"",-22.960475,-43.206776,"","",0,"","",,""
2028O00036C0,"","Rua Jardim Botânico, 1008","",-22.971011,-43.223365,"","",0,"","",,""
2028O00037C0,"","Rua Pacheco Leão , oposto ao 788","",-22.965555,-43.226681,"","",0,"","",,""
2028O00038C0,"","Rua Pacheco Leão , oposto ao 984","",-22.965807,-43.228692,"","",0,"","",,""
2028O00039C0,"","Rua Pacheco Leão , oposto ao 1124","",-22.966322,-43.229697,"","",0,"","",,""
2029O00001C0,"",Estrada da Gávea próximo ao 169,"",-22.98529,-43.24464,"","",0,"","",,""
2029O00010C0,"",Alexandre Stockler,"",-22.98427,-43.24062,"","",0,"","",,""
2029O00011C0,"","Rua Mary Pessoa , 431","",-22.98239,-43.23809,"","",0,"","",,""
2029O00012C0,"","Rua Marquês de São Vicente , 355","",-22.98164,-43.23667,"","",0,"","",,""
2029O00013C0,"","Rua Marquês de São Vicente , oposto ao 208","",-22.97779,-43.23291,"","",0,"","",,""
2029O00014C0,"","Rua Marquês de São Vicente , oposto ao 95","",-22.97724,-43.23071,"","",0,"","",,""
2029O00016C0,"","Rua Artur Araripe , oposto ao 94","",-22.97737,-43.22724,"","",0,"","",,""
2029O00018C0,"","Rua Marquês de São Vicente , 230","",-22.97803,-43.23344,"","",0,"","",,""
2029O00019C0,"","Rua Marquês de São Vicente ,298","",-22.979434,-43.234652,"","",0,"","",,""
2029O00020C0,"","Rua Marquês de São Vicente  , 380","",-22.98152,-43.23671,"","",0,"","",,""
2029O00025C0,"",Ponto Final: Alto Gávea :: Linha 105,"",-22.982038,-43.240976,"","",0,"","",,""
2029O00026C0,"",Ponto Final: Alto Gávea,"",-22.982169,-43.237715,"","",0,"","",,""
2029O00027C0,"","Avenida Visconde de Albuquerque ,L/O 1116","",-22.97956,-43.22669,"","",0,"","",,""
2029O00028C0,"",Avenida Rodrigo Otávio E/F PRAÇA SANTOS DUMONT,"",-22.97737,-43.22657,"","",0,"","",,""
2029O00031C0,"",Manuel Ferreira,"",-22.97852,-43.22751,"","",0,"","",,""
2029O00032C0,"",Gávea Trade Center,"",-22.97659,-43.229655,"","",0,"","",,""
2029O00033C0,"",Rua Vice-Governador Rúbens Berardo próximo ao 175,"",-22.97857,-43.22975,"","",0,"","",,""
2029O00034P0,"",Terminal da PUC :: Plataforma A,"",-22.979071,-43.231112,"","",0,2029O00041T0,"",,A
2029O00035C0,"","Rua Marquês de São Vicente , oposto ao 298","",-22.979379,-43.234476,"","",0,"","",,""
2027O00043C0,"",Ilha Piraquê,"",-22.969067,-43.217597,"","",0,"","",,""
2028O00016C0,"","Rua Pacheco Leão  , 320","",-22.965404,-43.222688,"","",0,"","",,""
2029O00029C0,"",Avenida Padre Leonel Franca próximo ao 240,"",-22.979285,-43.229259,"","",0,"","",,""
2028O00027C0,3GDT,J. Carlos,"",-22.96081,-43.20931,"","",0,"","",,""
2027O00060C0,RE3Z,Tasso Fragoso,"",-22.96104,-43.21032,"","",0,"","",,""
2028O00029C0,6EIC,Parque Lage,"",-22.961112,-43.212371,"","",0,"","",,""
2027O00061C0,JJAY,Parque Lage,"",-22.96135,-43.21315,"","",0,"","",,""
2028O00031C0,6PUF,Hospital da Lagoa,"",-22.961865,-43.215231,"","",0,"","",,""
2027O00062C0,IGR3,Hospital da Lagoa,"",-22.96218,-43.21546,"","",0,"","",,""
2027O00098C0,HKBW,ABBR,"",-22.964565,-43.217649,"","",0,"","",,""
2028O00032C0,7DDY,ABBR,"",-22.9648,-43.21811,"","",0,"","",,""
2027O00051C0,FMCV,Jardim Botânico,"",-22.97141,-43.2234,"","",0,"","",,""
2027O00105C0,AWBW,Jóquei Clube,"",-22.97362,-43.225424,"","",0,"","",,""
2027O00067C0,VIN5,Engenheiro Marques Porto,"",-22.959719,-43.201374,"","",0,"","",,""
2027O00089C0,"",Tabatinguera,"",-22.97154,-43.20793,"","",0,"","",,""
2027O00096C0,"",Hospital Municipal Miguel Couto,"",-22.977042,-43.224905,"","",0,"","",,""
2027O00049C0,"",Visconde de Albuquerque,"",-22.975926,-43.22528,"","",0,"","",,""
2027O00103C0,"",Parque dos Patins,"",-22.973973,-43.218227,"","",0,"","",,""
2027O00104C0,"",Marcos Tamoyo,"",-22.962634,-43.205994,"","",0,"","",,""
2027O00087C0,"",Vitor Maurtua,"",-22.965196,-43.203744,"","",0,"","",,""
2027O00086C0,"",Vitor Maurtua,"",-22.96496,-43.20352,"","",0,"","",,""
2027O00088C0,"",Ministro Armando de Alencar,"",-22.96909,-43.20551,"","",0,"","",,""
2027O00085C0,"",Ministro Armando de Alencar,"",-22.969278,-43.205277,"","",0,"","",,""
2027O00084C0,"",Tabatinguera,"",-22.97167,-43.20766,"","",0,"","",,""
2027O00083C0,"",Calombo,"",-22.97387,-43.20619,"","",0,"","",,""
2027O00099C0,"",Calombo,"",-22.974098,-43.205912,"","",0,"","",,""
2027O00082C0,"",Parque da Catacumba,"",-22.97311,-43.202,"","",0,"","",,""
2027O00091C0,"",Parque da Catacumba,"",-22.97414,-43.20133,"","",0,"","",,""
2027O00093C0,"",Vinícius de Moraes,"",-22.97924,-43.20249,"","",0,"","",,""
2027O00094C0,"",Maria Quitéria,"",-22.98044,-43.20675,"","",0,"","",,""
2027O00095C0,"",Aníbal de Mendonça,"",-22.980272,-43.210967,"","",0,"","",,""
2029O00036C0,"","Estrada da Gávea , 22","",-22.982301,-43.241299,"","",0,"","",,""
2029O00037C0,"",Estrada da Gávea próximo ao 169 - Gávea,"",-22.985376,-43.244742,"","",0,"","",,""
2029O00039P0,"",Terminal da PUC :: Plataforma B,"",-22.979398,-43.231131,"","",0,2029O00041T0,"",,B
2029O00041T0,"",Terminal da PUC,"",-22.979221,-43.231567,"","",1,"","",,""
2030O00012C0,"",Presidente João Goulart,"",-22.994692,-43.234484,"","",0,"","",,""
2031L00020C0,"","Estrada da Gávea , oposto ao 827","",-22.99199,-43.25393,"","",0,"","",,""
2031O00003C0,"",Povina Cavalcanti,"",-22.99756,-43.2605,"","",0,"","",,""
2031O00004C0,"",Ponto Final: Prefeito Mendes de Moraes,"",-22.99865,-43.259573,"","",0,"","",,""
2031O00008C0,"",Almirante Álvaro Alberto,"",-22.995057,-43.25731,"","",0,"","",,""
2031O00014C0,"",Gavea Golf and Country Club,"",-22.99749,-43.26473,"","",0,"","",,""
2031O00019C0,"","Avenida Niemeyer , 589","",-22.991984,-43.253629,"","",0,"","",,""
2031O00025C0,"",Ponto Final: São Conrado,"",-22.998851,-43.270567,"","",0,"","",,""
2031O00031C0,"",Estrada da Canoa,"",-22.99444,-43.271465,"","",0,"","",,""
2031O00032C0,"",Estrada da Canoa,"",-22.994532,-43.271504,"","",0,"","",,""
2031O00033C0,"",Estrada da Canoa,"",-22.993419,-43.275522,"","",0,"","",,""
2031O00034C0,"",Estrada da Canoa,"",-22.991355,-43.274073,"","",0,"","",,""
2031O00035C0,"",Estrada da Canoa,"",-22.989165,-43.274021,"","",0,"","",,""
2031O00036C0,"",R. Des. Magarino Torres,"",-22.987214,-43.273328,"","",0,"","",,""
2031O00037C0,"",Mirante das Canoas,"",-22.988314,-43.26956,"","",0,"","",,""
2031O00038C0,"",Mirante das Canoas,"",-22.988231,-43.269603,"","",0,"","",,""
2031O00039C0,"",Estrada da Canoa,"",-22.985214,-43.27098,"","",0,"","",,""
2031O00040C0,"",Estr. da Gávea,"",-22.990903,-43.252408,"","",0,"","",,""
2032O00001C0,"",Ponto Final: Praça da Bandeira :: Linha 624,"",-22.911486,-43.212072,"","",0,"","",,""
2032O00015C0,"","Avenida Paulo de Frontin , 126","",-22.91359,-43.21027,"","",0,"","",,""
2032O00017C0,"",R. Barão de Iguatemi - 404,"",-22.913557,-43.215314,"","",0,"","",,""
2032O00018C0,"",Barão de Iguatemi,"",-22.91353,-43.21589,"","",0,"","",,""
2032O00021C0,"",Rua Teixeira Soares próximo ao 71-191,"",-22.91144,-43.21431,"","",0,"","",,""
2032O00022C0,"",Praça da Bandeira próximo ao 226,"",-22.91151,-43.2141,"","",0,"","",,""
2032O00027C0,"",Estação Barão de Mauá :: Pista Lateral,"",-22.90774,-43.21014,"","",0,"","",,""
2032O00028C0,"",Estação Barão de Mauá :: Pista Central (Ônibus Municipais - Sentido Zona Sul),"",-22.90813,-43.20997,"","",0,"","",,""
2032O00029C0,"",Estação Barão de Mauá :: Linha 462,"",-22.907557,-43.210354,"","",0,"","",,""
2032O00031C0,"",Estação Barão de Mauá :: Linha 460,"",-22.907041,-43.210657,"","",0,"","",,""
2032O00032C0,"",Estação Barão de Mauá :: Linha 461,"",-22.907059,-43.21083,"","",0,"","",,""
2032O00033C0,"",Estação Barão de Mauá :: Linha 463,"",-22.907412,-43.210367,"","",0,"","",,""
2033L00138C1,"",TEC :: Marechal Taumaturgo de Azevedo,"",-22.928444,-43.236638,"","",0,"","",,""
2031O00026C0,"",Largo de São Conrado,"",-22.999013,-43.270742,"","",0,"","",,""
2031O00022C0,"",Acadêmicos da Rocinha,"",-22.992826,-43.25213,"","",0,"","",,""
2031O00002C0,"",Herbert Moses,"",-22.99816,-43.26568,"","",0,"","",,""
2030O00011C0,"",Sheraton,"",-22.992092,-43.233518,"","",0,"","",,""
2029O00038C0,9VQU,Praça Santos Dumont,"",-22.973808,-43.226103,"","",0,"","",,""
2032O00012S9,KRN2,"BRS 1,4,5,6,I: Barão de Ubá","",-22.9158,-43.21098,"","",0,"","",,""
2032O00008S9,LSPW,BRS 2: Matoso,"",-22.91608,-43.212,"","",0,"","",,""
2031O00001C0,"",Largo de São Conrado,"",-22.99925,-43.26911,"","",0,"","",,""
2031O00016C0,"",Engenheiro Álvaro Niemeyer,"",-22.998716,-43.270151,"","",0,"","",,""
2031O00007C0,"",Fashion Mall,"",-22.99609,-43.25938,"","",0,"","",,""
2031O00013C0,"",Golf Clube,"",-22.99468,-43.25777,"","",0,"","",,""
2031O00028C0,"",Bertha Lutz,"",-22.993801,-43.252995,"","",0,"","",,""
2031O00024C0,"",Bertha Lutz,"",-22.993995,-43.253922,"","",0,"","",,""
2031O00023C0,"",Geísa Firmo Gonçalves,"",-22.992413,-43.252342,"","",0,"","",,""
2031O00012C0,"",Almirante Álvaro Alberto,"",-22.99738,-43.25754,"","",0,"","",,""
2031O00015C0,"",Aquarela do Brasil,"",-22.99634,-43.25511,"","",0,"","",,""
2030O00007C0,"",Chácara do Céu,"",-22.990922,-43.232441,"","",0,"","",,""
2030O00004C0,"",Chácara do Céu,"",-22.991075,-43.23253,"","",0,"","",,""
2030O00008C0,"",Sheraton,"",-22.991949,-43.233693,"","",0,"","",,""
2030O00002C0,"",Presidente João Goulart,"",-22.99528,-43.2351,"","",0,"","",,""
2030O00009C0,"",Dom Eugênio Sales,"",-22.99725,-43.23784,"","",0,"","",,""
2030O00001C0,"",Dom Eugênio Sales,"",-22.9973,-43.23761,"","",0,"","",,""
2030O00010C0,"",Vip's,"",-23.000162,-43.243597,"","",0,"","",,""
2031O00027C0,"",Gruta da Imprensa,"",-22.998969,-43.250769,"","",0,"","",,""
2031O00006C0,"",Gruta da Imprensa,"",-22.99899,-43.25127,"","",0,"","",,""
2032O00020C0,"",Praça da Bandeira,"",-22.910638,-43.214421,"","",0,"","",,""
2032O00023C0,"",Praça da Bandeira :: Pista Central,"",-22.910933,-43.214137,"","",0,"","",,""
2033L00170C0,"",Palmira Gonçalves Maia,"",-22.93366,-43.24203,"","",0,"","",,""
2033C00160C0,"",TEC - Agostinho,"",-22.94234,-43.25312,"","",0,"","",,""
2033O00039C0,"",Ponto Final: Saens Peña :: Linha 639,"",-22.923128,-43.234252,"","",0,"","",,""
2033O00050C0,"","Rua do Matoso , 280","",-22.91964,-43.21184,"","",0,"","",,""
2033O00073P0,"",Terminal Carlos Manes Bandeira (Usina) :: Plat. A,"",-22.946298,-43.256977,"","",0,2033O00251T9,"",,""
2033O00088C0,"",Ponto Final: Saens Peña,"",-22.922795,-43.233366,"","",0,"","",,""
2033O00095C0,"",Ponto Regulador: Saens Peña :: Linha 623,"",-22.920484,-43.223411,"","",0,"","",,""
2033O00100C0,"",Ponto Final: Saens Peña :: Linha 409,"",-22.931494,-43.234319,"","",0,"","",,""
2033O00104C0,"","Rua Barão de Itapagipe , 386","",-22.92297,-43.21738,"","",0,"","",,""
2033O00105C0,"","Rua Barão de Itapagipe , 448","",-22.92366,-43.21854,"","",0,"","",,""
2033O00127C0,"",Ponto Final: Muda,"",-22.932232,-43.247523,"","",0,"","",,""
2033O00128C0,"",Ponto Final: Saens Peña :: Linha 629,"",-22.922814,-43.232537,"","",0,"","",,""
2033O00129C0,"",Ponto Final: Saens Peña :: Linha 601,"",-22.920447,-43.225029,"","",0,"","",,""
2033O00131C0,"",Ponto Final: Saens Peña,"",-22.926855,-43.233743,"","",0,"","",,""
2033O00132C0,"",Ponto Regulador: Saens Peña,"",-22.9253,-43.23282,"","",0,"","",,""
2033O00133C0,"","Rua do Bispo , 317","",-22.920639,-43.215215,"","",0,"","",,""
2033O00147C1,"",Pinheiro da Cunha,"",-22.940248,-43.249662,"","",0,"","",,""
2033O00152C0,"",Santa Carolina,"",-22.943884,-43.254209,"","",0,"","",,""
2033O00179C0,"",Ponto Regulador: Saens Peña,"",-22.924138,-43.232427,"","",0,"","",,""
2033O00180C0,"",Saens Peña :: Integração Metrô,"",-22.923826,-43.231994,"","",0,"","",,""
2033O00156C0,"",São Miguel,"",-22.943706,-43.254835,"","",0,"","",,""
2033O00022S0,9D2Q,"BRS 2,3,4: Moraes e Silva","",-22.91656,-43.22631,"","",0,"","",,""
2033O00045S0,31HK,"BRS 1,2,3,6,I: Pereira de Siqueira","",-22.91958,-43.2235,"","",0,"","",,""
2033O00141C0,"",Dona Delfina,"",-22.93141,-43.23913,"","",0,"","",,""
2033O00001S9,LT8T,"BRS 4,5,6,I: Caruso","",-22.91683,-43.2139,"","",0,"","",,""
2033O00040S9,LU9B,BRS 2: Domício da Gama,"",-22.91704,-43.21443,"","",0,"","",,""
2033O00024S9,M4HC,"BRS 5,6,I: Afonso Pena","",-22.91833,-43.21774,"","",0,"","",,""
2033O00041S9,M9CH,BRS 2: Afonso Pena,"",-22.91847,-43.21807,"","",0,"","",,""
2033O00025S9,MJ2K,"BRS 5,6,I: São Francisco Xavier","",-22.92072,-43.2232,"","",0,"","",,""
2033O00121S9,MLSU,BRS 2: Alzira Brandão,"",-22.92078,-43.22418,"","",0,"","",,""
2033O00026S9,MMW5,"BRS 5,6,I: Carmela Dutra","",-22.92097,-43.22676,"","",0,"","",,""
2033O00042S9,NHAX,"BRS 2,5,6,7,I: Conselheiro Zenha","",-22.92163,-43.22848,"","",0,"","",,""
2033O00108S9,NTKR,"BRS 2,7: Saens Peña","",-22.92341,-43.23182,"","",0,"","",,""
2033O00111S9,NW3Y,"BRS 5,I: Saens Peña","",-22.92371,-43.23222,"","",0,"","",,""
2033O00122S9,NZA5,"BRS 1,6: Saens Peña","",-22.92408,-43.23273,"","",0,"","",,""
2033O00021S0,8UHE,"BRS 6,7: Barão de Mesquita","",-22.91638,-43.22806,"","",0,"","",,""
2033O00142C0,"",Uruguai,"",-22.93223,-43.24084,"","",0,"","",,""
2033O00173C0,"",Uruguai,"",-22.93235,-43.24059,"","",0,"","",,""
2033O00112C9,"",Haddock Lobo,"",-22.917065,-43.212129,"","",0,"","",,""
2033O00182C0,"",Conselheiro Zenha,"",-22.92424,-43.22793,"","",0,"","",,""
2033O00181C0,"",Jurupari,"",-22.923514,-43.229851,"","",0,"","",,""
2033O00178C0,"",Saens Peña,"",-22.924441,-43.232888,"","",0,"","",,""
2033O00177C0,"",General Roca,"",-22.92498,-43.23366,"","",0,"","",,""
2033O00135C0,"",Pinto de Figueiredo,"",-22.92556,-43.23475,"","",0,"","",,""
2033O00136C0,"",Abelardo Chacrinha Barbosa,"",-22.926048,-43.235176,"","",0,"","",,""
2033O00176C0,"",Abelardo Chacrinha Barbosa,"",-22.927087,-43.235595,"","",0,"","",,""
2033O00137C0,"",Conde de Itaguaí,"",-22.92755,-43.23615,"","",0,"","",,""
2033O00175C0,"",Henry Ford,"",-22.928422,-43.2364,"","",0,"","",,""
2033O00139C0,"",Clóvis Bevilaqua,"",-22.92911,-43.23706,"","",0,"","",,""
2033O00140C0,"",José Higino,"",-22.929518,-43.237305,"","",0,"","",,""
2033O00174C0,"",Vicente de Cabo Frio,"",-22.93111,-43.23833,"","",0,"","",,""
2033O00172C0,"",Alves de Brito,"",-22.933786,-43.24212,"","",0,"","",,""
2033O00143C0,"",Alves de Brito,"",-22.93386,-43.24241,"","",0,"","",,""
2033O00144C0,"",Radmaker,"",-22.93489,-43.24342,"","",0,"","",,""
2033O00168C0,"",Natalina,"",-22.936322,-43.244759,"","",0,"","",,""
2033O00169C0,"",Garibaldi,"",-22.935682,-43.244028,"","",0,"","",,""
2033O00145C0,"",Natalina,"",-22.93644,-43.245151,"","",0,"","",,""
2033O00167C0,"",Cascata,"",-22.938165,-43.246699,"","",0,"","",,""
2033O00146C0,"",Livreiro Francisco Alves,"",-22.938999,-43.247835,"","",0,"","",,""
2033O00118C0,"",Basileia,"",-22.93912,-43.24779,"","",0,"","",,""
2033O00166C0,"",Embaixador Ramon Carcand,"",-22.94006,-43.24916,"","",0,"","",,""
2033O00164C0,"",Cotingo,"",-22.940855,-43.250411,"","",0,"","",,""
2033O00149C0,"",Paul Underberg,"",-22.94103,-43.25168,"","",0,"","",,""
2033O00162C0,"",Agostinho,"",-22.942058,-43.252751,"","",0,"","",,""
2033O00151C0,"",Ary Kerner,"",-22.941899,-43.253062,"","",0,"","",,""
2033O00159C0,"",Santa Carolina,"",-22.94328,-43.253822,"","",0,"","",,""
2033O00158C0,"",Santa Carolina,"",-22.943307,-43.254891,"","",0,"","",,""
2033O00155C0,"",São Rafael,"",-22.946068,-43.255223,"","",0,"","",,""
2033O00153C0,"",São Rafael,"",-22.94601,-43.25533,"","",0,"","",,""
2033O00106C0,"",Barão de Itapagipe,"",-22.92446,-43.22172,"","",0,"","",,""
2033O00190C0,"",Rua Campos Sales oposto ao 81,"",-22.91684,-43.2179,"","",0,"","",,""
2033O00191C0,"",Rua Campos Sales próximo ao 170,"",-22.91512,-43.2187,"","",0,"","",,""
2033O00192C0,"",Rua Almirante Cóchrane próximo ao 12,"",-22.91844,-43.22488,"","",0,"","",,""
2033O00194C0,"",Rua Almirante Cóchrane próximo ao 112-120,"",-22.92034,-43.22725,"","",0,"","",,""
2033O00196C0,"",Rua Almirante Cóchrane próximo ao 162,"",-22.92113,-43.22818,"","",0,"","",,""
2033O00197C0,"",Rua Almirante Cóchrane próximo ao 216,"",-22.92174,-43.2297,"","",0,"","",,""
2033O00204C0,"",Rua Professor Gabizo próximo ao 146,"",-22.9186,-43.21966,"","",0,"","",,""
2033O00208C0,"",Rua Professor Gabizo próximo ao 202,"",-22.91706,-43.2211,"","",0,"","",,""
2033O00209C0,"",R. Des. Izidro - 144,"",-22.929797,-43.234198,"","",0,"","",,""
2033O00212C0,"",Condomínio Edifício Madri,"",-22.9277,-43.2318,"","",0,"","",,""
2033O00214C0,"",Rua José Higino próximo ao 227,"",-22.92908,-43.23908,"","",0,"","",,""
2033O00215C0,"",Rua José Higino próximo ao 149-165,"",-22.92768,-43.23988,"","",0,"","",,""
2033O00216C0,"",Rua José Higino próximo ao 61,"",-22.92534,-43.240261,"","",0,"","",,""
2033O00219C0,"",R. Amoroso Costa - 123,"",-22.933497,-43.24798,"","",0,"","",,""
2033O00220C0,"",Rua Marechal Trompowski próximo ao 103,"",-22.93456,-43.24691,"","",0,"","",,""
2033O00225C0,"","Rua Barão de Mesquita, 179","",-22.920736,-43.231648,"","",0,"","",,""
2033O00226C0,"",Rua Barão de Mesquita próximo ao 26,"",-22.91671,-43.22892,"","",0,"","",,""
2033O00227C0,"",Avenida Maracanã próximo ao 894,"",-22.92229,-43.23609,"","",0,"","",,""
2033O00229C0,"",Rua Major Ávila próximo ao 444,"",-22.92009,-43.23375,"","",0,"","",,""
2033O00232C0,"",Rua Uruguai 380,"",-22.93184,-43.24159,"","",0,"","",,""
2033O00234C0,"",Rua Pereira de Siqueira próximo ao 68,"",-22.92018,-43.22617,"","",0,"","",,""
2033O00236C0,"","R. Marquês de Valença, 148","",-22.920386,-43.225752,"","",0,"","",,""
2033O00237C0,"",Heitor Beltrão,"",-22.91768,-43.21988,"","",0,"","",,""
2033O00239C0,"",Rua Gonçalves Crespo próximo ao 181,"",-22.916,-43.21721,"","",0,"","",,""
2033O00246C0,"",Ponto Final: Saens Peña :: Linha 665,"",-22.922156,-43.232592,"","",0,"","",,""
2033O00247C0,"",Ponto Final: Saens Peña :: Linhas para Gávea,"",-22.923941,-43.235854,"","",0,"","",,""
2033O00248P0,"",Terminal Carlos Manes Bandeira (Usina) :: Plat. B,"",-22.946293,-43.256829,"","",0,2033O00251T9,"",,""
2033O00249P0,"",Terminal Carlos Manes Bandeira (Usina) :: Plat. C,"",-22.946299,-43.25667,"","",0,2033O00251T9,"",,""
2033O00250P0,"",Terminal Carlos Manes Bandeira (Usina) :: Plat. D,"",-22.946357,-43.256559,"","",0,2033O00251T9,"",,""
2033O00251T9,"",Terminal Carlos Manes Bandeira (Usina),"",-22.946615,-43.256626,"","",1,"","",,""
2033O00252C0,"",R. São Miguel,"",-22.938137,-43.249194,"","",0,"","",,""
2033O00253C0,"",R. São Miguel,"",-22.93788,-43.249018,"","",0,"","",,""
2033O00254C0,"",R. São Miguel,"",-22.936476,-43.246842,"","",0,"","",,""
2034O00009C0,"","Estrada das Furnas , próximo à estrada do Biguá","",-22.97098,-43.28289,"","",0,"","",,""
2034O00013C0,"","Av. Édison Passos , 934","",-22.95072,-43.26202,"","",0,"","",,""
2034O00014C0,"","Avenida Édison Passos , oposto ao 1142","",-22.951447,-43.260818,"","",0,"","",,""
2034O00015C0,"","Avenida Édison Passos , oposto ao 1915","",-22.95311,-43.2615,"","",0,"","",,""
2034O00016C0,"",Avenida Édison Passos próximo ao 2258,"",-22.95451,-43.26371,"","",0,"","",,""
2034O00017C0,"",Avenida Édison Passos próximo ao 2801-2999,"",-22.95731,-43.26779,"","",0,"","",,""
2034O00018C0,"",Avenida Édison Passos próximo ao 3256-3556,"",-22.957652,-43.264686,"","",0,"","",,""
2034O00032C0,"","Avenida Édison Passos ,  567","",-22.948963,-43.259915,"","",0,"","",,""
2034O00041C0,"",Estrada das Furnas próximo ao 1112,"",-22.97285,-43.28423,"","",0,"","",,""
2034O00042C0,"",Estrada das Furnas próximo ao 1276,"",-22.97383,-43.28551,"","",0,"","",,""
2033O00206C0,"",Silva Guimarães,"",-22.927782,-43.233559,"","",0,"","",,""
2033O00233C0,"",Rua Uruguai 280,"",-22.929252,-43.243262,"","",0,"","",,""
2033O00211C0,"","Rua Bom Pastor , 295","",-22.929379,-43.231702,"","",0,"","",,""
2034O00031C0,"","Avenida Édison Passos , 899","",-22.950788,-43.261946,"","",0,"","",,""
2033O00217C0,"",Rua General Espírito Santo Cardoso próximo ao 342,"",-22.931375,-43.245786,"","",0,"","",,""
2034O00019C0,"",Avenida Édison Passos próximo ao 4200,"",-22.96013,-43.269767,"","",0,"","",,""
2033O00244S2,9NWD,"BRS 2,3,4: Almirante Cóchrane","",-22.91836,-43.22432,"","",0,"","",,""
2033O00189C0,"",Matoso,"",-22.91825,-43.21225,"","",0,"","",,""
2033O00188C0,"",Bispo,"",-22.919841,-43.215123,"","",0,"","",,""
2033O00186C0,"",Araújo Pena,"",-22.921446,-43.219916,"","",0,"","",,""
2033O00185C0,"",Felix da Cunha,"",-22.922754,-43.222164,"","",0,"","",,""
2033O00184C0,"",Rego Lopes,"",-22.924232,-43.223816,"","",0,"","",,""
2033O00183C0,"",Araújos,"",-22.924953,-43.226248,"","",0,"","",,""
2033O00228C0,"",Heitor Beltrão,"",-22.92263,-43.23019,"","",0,"","",,""
2033O00199C0,"",General Roca,"",-22.92357,-43.23384,"","",0,"","",,""
2033O00198C0,"",Major Ávila,"",-22.92259,-43.23193,"","",0,"","",,""
2033O00223C0,"",Major Ávila,"",-22.922849,-43.233585,"","",0,"","",,""
2033O00202C0,"",Soriano de Sousa,"",-22.924244,-43.234879,"","",0,"","",,""
2033O00243C0,"",José Higino,"",-22.93059,-43.2378,"","",0,"","",,""
2033O00221C0,"",Maracanã,"",-22.93647,-43.24563,"","",0,"","",,""
2034O00040C0,"",Estrada Velha da Tijuca,"",-22.94677,-43.25713,"","",0,"","",,""
2034L00039C0,"",São Miguel,"",-22.946652,-43.257262,"","",0,"","",,""
2034O00037C0,"",Largo São Camilo de Lilles,"",-22.94623,-43.25773,"","",0,"","",,""
2034O00033C0,"",Fontes Castelo,"",-22.94749,-43.25919,"","",0,"","",,""
2034O00012C0,"",Doutor Catrambi,"",-22.94693,-43.25924,"","",0,"","",,""
2033O00187C0,"",Maestro Villa Lobos,"",-22.920869,-43.217647,"","",0,"","",,""
2034O00043C0,"",Estrada das Furnas próximo ao 1440,"",-22.97433,-43.28586,"","",0,"","",,""
2034O00044C0,"",Estrada das Furnas oposto ao 1805,"",-22.97639,-43.28891,"","",0,"","",,""
2034O00045C0,"",Estrada das Furnas próximo ao 1805,"",-22.97669,-43.28964,"","",0,"","",,""
2034O00046C0,"",Estrada das Furnas oposto ao 1984,"",-22.9778,-43.29121,"","",0,"","",,""
2034O00047C0,"",Estrada das Furnas oposto ao 2109,"",-22.97841,-43.29173,"","",0,"","",,""
2034O00048C0,"",Estrada das Furnas oposto ao 2261,"",-22.979525,-43.292712,"","",0,"","",,""
2034O00050C0,"",Estrada das Furnas próximo a entrocamento com Estrada da Gávea Pequena,"",-22.97026,-43.280893,"","",0,"","",,""
2034O00051C0,"",Estrada das Furnas oposto a entrocamento com Estrada da Gávea Pequena,"",-22.97008,-43.28096,"","",0,"","",,""
2034O00052C0,"",Rua Boavista próximo ao 190,"",-22.965726,-43.277491,"","",0,"","",,""
2034O00053C0,"",Ponto Regulador:  Rua Boa Vista oposto ao 190,"",-22.965638,-43.277233,"","",0,"","",,""
2034O00056C0,"","Rua Boa Vista , 105","",-22.96415,-43.27636,"","",0,"","",,""
2034O00057C0,"","Rua Boavista , oposto  ao 52","",-22.96322,-43.27522,"","",0,"","",,""
2034O00058C0,"","Rua Boavista próximo , 52","",-22.96301,-43.27526,"","",0,"","",,""
2034O00059C0,"","Rua Boavista , 4575","",-22.96157,-43.27318,"","",0,"","",,""
2034O00062C9,"",Rua Jornalista Guima próximo à E M Menezes Vieira,"",-22.965342,-43.277444,"","",0,"","",,""
2034O00064C9,"","Rua Boa Vista , oposto ao 4575","",-22.961496,-43.273309,"","",0,"","",,""
2034O00066C9,"","Rua Boa Vista , oposto ao 117","",-22.964331,-43.276925,"","",0,"","",,""
2034O00067C0,"","Avenida Édison Passos , oposto ao 559","",-22.948786,-43.259947,"","",0,"","",,""
2034O00068C0,"",Avenida Édison Passos próximo ao 2801-2999,"",-22.957109,-43.267671,"","",0,"","",,""
2034O00069C0,"",Avenida Édison Passos próximo ao 3256-3556,"",-22.957157,-43.265385,"","",0,"","",,""
2034O00070C0,"",Estr. da Pedra Bonita,"",-22.977978,-43.277495,"","",0,"","",,""
2034O00071C0,"",Estr. da Gávea Pequena,"",-22.976015,-43.278423,"","",0,"","",,""
2034O00072C0,"",Estr. da Gávea Pequena,"",-22.976217,-43.278486,"","",0,"","",,""
2034O00073C0,"",Estr. da Pedra Bonita,"",-22.978625,-43.277157,"","",0,"","",,""
2035O00015C0,"","Rua São Francisco Xavier , lado oposto ao número 593","",-22.9116,-43.23727,"","",0,"","",,""
2035O00016C0,"","Rua São Francisco Xavier , lado oposto ao número 649","",-22.90999,-43.23813,"","",0,"","",,""
2035O00047C0,"","Rua São Francisco Xavier , 524","",-22.912755,-43.235793,"","",0,"","",,""
2035O00048C0,"","Rua São Francisco Xavier , lado oposto ao número 609 (via 24 de Maio)","",-22.910828,-43.23775,"","",0,"","",,""
2035O00049C0,"",Ponto Final: São Cristovão :: Linhas 460 e 461,"",-22.909844,-43.221063,"","",0,"","",,""
2035O00050C0,"",Rua Mariz e Barros próximo ao 318,"",-22.9135,-43.21777,"","",0,"","",,""
2035O00051C0,"",Rua Mariz e Barros próximo ao 556,"",-22.91448,-43.21955,"","",0,"","",,""
2035O00052C0,"",Rua Mariz e Barros próximo ao 678-724,"",-22.91529,-43.22091,"","",0,"","",,""
2035O00054C0,"",Lúcio de Mendonça,"",-22.91657,-43.22248,"","",0,"","",,""
2035O00057C0,"",Paula Sousa,"",-22.91277,-43.22588,"","",0,"","",,""
2035O00060C0,"",Rua Pará próximo ao 300,"",-22.91149,-43.21752,"","",0,"","",,""
2035O00061C0,"",Rua Professor Gabizo próximo ao 242,"",-22.91586,-43.2226,"","",0,"","",,""
2035O00062C0,"",General Canabarro,"",-22.91382,-43.22498,"","",0,"","",,""
2035O00066C0,"",Maracanã,"",-22.91351,-43.22771,"","",0,"","",,""
2035O00068C0,"",Avenida Maracanã próximo ao 410,"",-22.91547,-43.22944,"","",0,"","",,""
2035O00070C2,"",Professor Eurico Rabelo :: Linhas para Zona Sul,"",-22.915608,-43.229054,"","",0,"","",,""
2035O00071C0,"",Av. Maracanã próximo ao 455,"",-22.915485,-43.229139,"","",0,"","",,""
2035O00072C0,"",Avenida Maracanã próximo ao 582,"",-22.91736,-43.23092,"","",0,"","",,""
2035O00073C0,"",Avenida Maracanã oposto ao 667,"",-22.91901,-43.23323,"","",0,"","",,""
2035O00076C0,"",Avenida Professor Manoel de Abreu próximo ao 27,"",-22.9134,-43.2339,"","",0,"","",,""
2035O00079C0,"",Avenida Radial Oeste próximo ao 393-575,"",-22.9108,-43.21823,"","",0,"","",,""
2035O00086C0,"",Av. Maracanã próximo ao 329,"",-22.913135,-43.22715,"","",0,"","",,""
2035O00090C2,"",Mata Machado,"",-22.91326,-43.227046,"","",0,"","",,""
2035O00091C0,"","Rua Felipe Camarão , próximo ao 111","",-22.916618,-43.235029,"","",0,"","",,""
2035O00092C0,"",R. Ibituruna próximo ao 24,"",-22.913561,-43.219673,"","",0,"","",,""
2035O00093C0,"","Rua Ibituruna , oposto ao 89","",-22.912351,-43.221392,"","",0,"","",,""
2035O00094C0,"","Rua Senador Furtado , proximo ao 117","",-22.910634,-43.220078,"","",0,"","",,""
2035O00095C0,"",Rua Senador Furtado próximo ao 75,"",-22.91168,-43.218765,"","",0,"","",,""
2035O00018S0,7V3P,"BRS 5,6: Felipe Camarão","",-22.91266,-43.23625,"","",0,"","",,""
2035O00019S0,8A9A,"BRS 3,4,5,6: Professor Manoel de Abreu","",-22.91365,-43.23451,"","",0,"","",,""
2035O00002S0,8AES,"BRS 5,6: Santa Luíza","",-22.91533,-43.2325,"","",0,"","",,""
2035O00041S0,8HAM,"BRS 2,3,4: Jaceguai","",-22.91584,-43.23182,"","",0,"","",,""
2035O00059C0,"",Metrô São Cristóvão,"",-22.91047,-43.2216,"","",0,"","",,""
2035O00056C0,"",CEFET Celso Sukow da Fonseca,"",-22.913028,-43.22508,"","",0,"","",,""
2035O00028S9,1BJG,"BRS 2,6,7: Felipe Camarão","",-22.91375,-43.23656,"","",0,"","",,""
2035O00039S9,1EBQ,"BRS 4,5,I: Jorge Rudge","",-22.91384,-43.23697,"","",0,"","",,""
2035O00074C0,"",Rua Felipe Camarão próximo ao 161,"",-22.917557,-43.234842,"","",0,"","",,""
2035O00043S0,5SGU,"BRS 3,4,I: Mará","",-22.91206,-43.23707,"","",0,"","",,""
2035O00078C0,"",Metrô São Cristóvão,"",-22.90993,-43.22031,"","",0,"","",,""
2035O00087C0,"",Rei Pelé,"",-22.911268,-43.224872,"","",0,"","",,""
2035O00077C0,"",Radialista Waldir Amaral,"",-22.9117,-43.23407,"","",0,"","",,""
2035O00042C0,"",Estação Maracanã,"",-22.908763,-43.234887,"","",0,"","",,""
2036O00012S9,"","BRS 2,6,7: Hipólito da Costa","",-22.91446,-43.23969,"","",0,"","",,""
2036O00017C2,"",Rua Barão do Bom Retiro próximo ao 1745,"",-22.91567,-43.26266,"","",0,"","",,""
2036O00018C0,"",Ponto Final: Praça Barão de Drummond,"",-22.916241,-43.251192,"","",0,"","",,""
2036O00048C1,"",Ponto Final: Vila Isabel :: Linhas Intermunicipais,"",-22.918188,-43.261964,"","",0,"","",,""
2036O00061C0,"",Avenida Maracanã próximo ao 800,"",-22.92032,-43.2353,"","",0,"","",,""
2036O00062C0,"",Rua Barão de Mesquita 394,"",-22.92408,-43.23809,"","",0,"","",,""
2036O00068C0,"",Rua Gonzaga Bastos 224,"",-22.92048,-43.23973,"","",0,"","",,""
2036O00069C0,"",Rua Gonzaga Bastos 114,"",-22.92206,-43.23872,"","",0,"","",,""
2036O00070C0,"",Rua Gonzaga Bastos próximo ao 36,"",-22.92357,-43.23775,"","",0,"","",,""
2036O00071C0,"",Rua Pereira Nunes 47,"",-22.92271,-43.23705,"","",0,"","",,""
2036O00073C0,"",Rua Pereira Nunes 197,"",-22.92006,-43.23865,"","",0,"","",,""
2036O00074C0,"",Rua Pereira Nunes 273,"",-22.9186,-43.23953,"","",0,"","",,""
2036O00075C0,"",Rua Maxwell 121,"",-22.91847,-43.24026,"","",0,"","",,""
2036O00076C0,"",Rua Maxwell 207,"",-22.91981,-43.24292,"","",0,"","",,""
2036O00078C0,"",Avenida Engenheiro Octacílio Negrão de Lima,"",-22.91809,-43.24195,"","",0,"","",,""
2036O00080C0,"",Rua General Zenóbio da Costa 2,"",-22.91214,-43.24017,"","",0,"","",,""
2036O00081C0,"",Visconde de Abaeté,"",-22.913547,-43.244135,"","",0,"","",,""
2036O00083C0,"",Rua Oito de Dezembro 238,"",-22.909298,-43.239442,"","",0,"","",,""
2036O00086C0,"",Rua Maxwell 300,"",-22.92035,-43.24441,"","",0,"","",,""
2036O00088C0,"",Rua Felipe Camarão próximo ao 67,"",-22.914929,-43.235468,"","",0,"","",,""
2036O00092C0,"",Torres Homem,"",-22.91527,-43.2518,"","",0,"","",,""
2037I00052C0,"",Uruguai,"",-22.926232,-43.245915,"","",0,"","",,""
2037O00019C0,"",Ponto Final: Andaraí :: Linha 217,"",-22.93078,-43.254158,"","",0,"","",,""
2037O00024C0,"",Rua Paula Brito próximo ao 129,"",-22.92586,-43.25286,"","",0,"","",,""
2037O00025C0,"",Rua Barão de Mesquita oposto ao 897,"",-22.92427,-43.25231,"","",0,"","",,""
2037O00026C0,"",Rua Uruguai 228,"",-22.92768,-43.24433,"","",0,"","",,""
2037O00028C0,"",Rua Uruguai 91,"",-22.92376,-43.24669,"","",0,"","",,""
2037O00029C0,"",Rua Barão de Mesquita 538,"",-22.92477,-43.2436,"","",0,"","",,""
2037O00031C0,"",Rua Barão de Mesquita 468,"",-22.92404,-43.24128,"","",0,"","",,""
2037O00032C0,"",Rua Maxwell 520,"",-22.92286,-43.24918,"","",0,"","",,""
2037O00033C0,"",Rua Maxwell 465,"",-22.9229,-43.24867,"","",0,"","",,""
2037O00034C0,"",Rua Barão de Mesquita 845,"",-22.9249,-43.25094,"","",0,"","",,""
2037O00035C0,"",Rua Maxwell 581,"",-22.92394,-43.2507,"","",0,"","",,""
2037O00036C0,"",Rua Maxwell 566,"",-22.92355,-43.25048,"","",0,"","",,""
2037O00041C0,"",Rua Paula Brito 328,"",-22.92704,-43.25375,"","",0,"","",,""
2037O00042C0,"",Rua Paula Brito 462,"",-22.92808,-43.25445,"","",0,"","",,""
2037O00044C0,"",Rua Leopoldo 549,"",-22.9289,-43.25265,"","",0,"","",,""
2037O00045C0,"",Rua Leopoldo 291,"",-22.92798,-43.25196,"","",0,"","",,""
2037O00049C0,"",Ponto Final: Vila Isabel :: Linha 134B,"",-22.926139,-43.248489,"","",0,"","",,""
2037O00054C0,"",Rua Maxwell 419,"",-22.92147,-43.24586,"","",0,"","",,""
2037O00057C0,"",Rua Maxwell 349,"",-22.922248,-43.247306,"","",0,"","",,""
2038O00004C0,"","Rua Ferreira Pontes , oposto ao 165","",-22.92566,-43.25397,"","",0,"","",,""
2038O00043C1,"","Rua Barão do Bom Retiro, 1956 - Grajau, Rio de Janeiro - RJ","",-22.91755,-43.26213,"","",0,"","",,""
2038O00044C0,"",Rua Canavieiras próximo ao 91,"",-22.9256,-43.26549,"","",0,"","",,""
2038O00045C0,"",Rua Canavieira próximo ao 186,"",-22.92469,-43.26578,"","",0,"","",,""
2038O00046C0,"",Rua Canavieiras próximo ao 310,"",-22.92363,-43.26629,"","",0,"","",,""
2038O00047C0,"",Rua Canavieiras próximo ao 405,"",-22.92293,-43.26674,"","",0,"","",,""
